{"type":"FeatureCollection","totalFeatures":7322,"features":[{"type":"Feature","id":"ne_10m_populated_places.1","geometry":{"type":"Point","coordinates":[-57.84000247340134,-34.47999900541754]},"geometry_name":"the_geom","properties":{"NAME":"Colonia del Sacramento","bbox":[-57.84000247340134,-34.47999900541754,-57.84000247340134,-34.47999900541754]}},{"type":"Feature","id":"ne_10m_populated_places.2","geometry":{"type":"Point","coordinates":[-56.90099656015872,-33.5439989373607]},"geometry_name":"the_geom","properties":{"NAME":"Trinidad","bbox":[-56.90099656015872,-33.5439989373607,-56.90099656015872,-33.5439989373607]}},{"type":"Feature","id":"ne_10m_populated_places.3","geometry":{"type":"Point","coordinates":[-58.3039974719095,-33.1389990288435]},"geometry_name":"the_geom","properties":{"NAME":"Fray Bentos","bbox":[-58.3039974719095,-33.1389990288435,-58.3039974719095,-33.1389990288435]}},{"type":"Feature","id":"ne_10m_populated_places.4","geometry":{"type":"Point","coordinates":[-56.28400149324307,-34.538004006675465]},"geometry_name":"the_geom","properties":{"NAME":"Canelones","bbox":[-56.28400149324307,-34.538004006675465,-56.28400149324307,-34.538004006675465]}},{"type":"Feature","id":"ne_10m_populated_places.5","geometry":{"type":"Point","coordinates":[-56.21499844799416,-34.09900200521719]},"geometry_name":"the_geom","properties":{"NAME":"Florida","bbox":[-56.21499844799416,-34.09900200521719,-56.21499844799416,-34.09900200521719]}},{"type":"Feature","id":"ne_10m_populated_places.6","geometry":{"type":"Point","coordinates":[0.7890035737781318,9.26100006831723]},"geometry_name":"the_geom","properties":{"NAME":"Bassar","bbox":[0.7890035737781318,9.26100006831723,0.7890035737781318,9.26100006831723]}},{"type":"Feature","id":"ne_10m_populated_places.7","geometry":{"type":"Point","coordinates":[0.9849964623313099,8.557002133057097]},"geometry_name":"the_geom","properties":{"NAME":"Sotouboua","bbox":[0.9849964623313099,8.557002133057097,0.9849964623313099,8.557002133057097]}},{"type":"Feature","id":"ne_10m_populated_places.8","geometry":{"type":"Point","coordinates":[10.4166995575967,33.399999002467325]},"geometry_name":"the_geom","properties":{"NAME":"Medenine","bbox":[10.4166995575967,33.399999002467325,10.4166995575967,33.399999002467325]}},{"type":"Feature","id":"ne_10m_populated_places.9","geometry":{"type":"Point","coordinates":[8.9710025379012,33.689997034920566]},"geometry_name":"the_geom","properties":{"NAME":"Kebili","bbox":[8.9710025379012,33.689997034920566,8.9710025379012,33.689997034920566]}},{"type":"Feature","id":"ne_10m_populated_places.10","geometry":{"type":"Point","coordinates":[10.466703589415545,33.00000315432084]},"geometry_name":"the_geom","properties":{"NAME":"Tataouine","bbox":[10.466703589415545,33.00000315432084,10.466703589415545,33.00000315432084]}},{"type":"Feature","id":"ne_10m_populated_places.11","geometry":{"type":"Point","coordinates":[10.199997547479256,36.866673153444935]},"geometry_name":"the_geom","properties":{"NAME":"L'Ariana","bbox":[10.199997547479256,36.866673153444935,10.199997547479256,36.866673153444935]}},{"type":"Feature","id":"ne_10m_populated_places.12","geometry":{"type":"Point","coordinates":[8.749998614579113,36.500004059426146]},"geometry_name":"the_geom","properties":{"NAME":"Jendouba","bbox":[8.749998614579113,36.500004059426146,8.749998614579113,36.500004059426146]}},{"type":"Feature","id":"ne_10m_populated_places.13","geometry":{"type":"Point","coordinates":[8.716698503320458,35.216703104824205]},"geometry_name":"the_geom","properties":{"NAME":"Kasserine","bbox":[8.716698503320458,35.216703104824205,8.716698503320458,35.216703104824205]}},{"type":"Feature","id":"ne_10m_populated_places.14","geometry":{"type":"Point","coordinates":[9.500004482255633,35.01669607914971]},"geometry_name":"the_geom","properties":{"NAME":"Sdid Bouzid","bbox":[9.500004482255633,35.01669607914971,9.500004482255633,35.01669607914971]}},{"type":"Feature","id":"ne_10m_populated_places.15","geometry":{"type":"Point","coordinates":[9.383301599658637,36.083304125235486]},"geometry_name":"the_geom","properties":{"NAME":"Siliana","bbox":[9.383301599658637,36.083304125235486,9.383301599658637,36.083304125235486]}},{"type":"Feature","id":"ne_10m_populated_places.16","geometry":{"type":"Point","coordinates":[11.040876615321963,35.483913044502685]},"geometry_name":"the_geom","properties":{"NAME":"Mahdia","bbox":[11.040876615321963,35.483913044502685,11.040876615321963,35.483913044502685]}},{"type":"Feature","id":"ne_10m_populated_places.17","geometry":{"type":"Point","coordinates":[10.767294561862002,35.730702135151205]},"geometry_name":"the_geom","properties":{"NAME":"Monastir","bbox":[10.767294561862002,35.730702135151205,10.767294561862002,35.730702135151205]}},{"type":"Feature","id":"ne_10m_populated_places.18","geometry":{"type":"Point","coordinates":[10.146996606592154,36.39999616127193]},"geometry_name":"the_geom","properties":{"NAME":"Zaghouan","bbox":[10.146996606592154,36.39999616127193,10.146996606592154,36.39999616127193]}},{"type":"Feature","id":"ne_10m_populated_places.19","geometry":{"type":"Point","coordinates":[106.14699968305416,11.322999109363707]},"geometry_name":"the_geom","properties":{"NAME":"Tay Ninh","bbox":[106.14699968305416,11.322999109363707,106.14699968305416,11.322999109363707]}},{"type":"Feature","id":"ne_10m_populated_places.20","geometry":{"type":"Point","coordinates":[103.34300467988777,21.740003991855076]},"geometry_name":"the_geom","properties":{"NAME":"Luan Chau","bbox":[103.34300467988777,21.740003991855076,103.34300467988777,21.740003991855076]}},{"type":"Feature","id":"ne_10m_populated_places.21","geometry":{"type":"Point","coordinates":[105.8333333000001,22.133333299999947]},"geometry_name":"the_geom","properties":{"NAME":"Bac Kan","bbox":[105.8333333000001,22.133333299999947,105.8333333000001,22.133333299999947]}},{"type":"Feature","id":"ne_10m_populated_places.22","geometry":{"type":"Point","coordinates":[106.75700157601534,21.84599710299534]},"geometry_name":"the_geom","properties":{"NAME":"Lang Son","bbox":[106.75700157601534,21.84599710299534,106.75700157601534,21.84599710299534]}},{"type":"Feature","id":"ne_10m_populated_places.23","geometry":{"type":"Point","coordinates":[103.91000465110193,21.328002138749298]},"geometry_name":"the_geom","properties":{"NAME":"Son La","bbox":[103.91000465110193,21.328002138749298,103.91000465110193,21.328002138749298]}},{"type":"Feature","id":"ne_10m_populated_places.24","geometry":{"type":"Point","coordinates":[105.21099961499738,21.817998095275925]},"geometry_name":"the_geom","properties":{"NAME":"Tuyen Quang","bbox":[105.21099961499738,21.817998095275925,105.21099961499738,21.817998095275925]}},{"type":"Feature","id":"ne_10m_populated_places.25","geometry":{"type":"Point","coordinates":[104.87500258624527,21.70500303954708]},"geometry_name":"the_geom","properties":{"NAME":"Yen Bai","bbox":[104.87500258624527,21.70500303954708,104.87500258624527,21.70500303954708]}},{"type":"Feature","id":"ne_10m_populated_places.26","geometry":{"type":"Point","coordinates":[106.33100460436708,20.94200107817835]},"geometry_name":"the_geom","properties":{"NAME":"Hai Duong","bbox":[106.33100460436708,20.94200107817835,106.33100460436708,20.94200107817835]}},{"type":"Feature","id":"ne_10m_populated_places.27","geometry":{"type":"Point","coordinates":[106.33302962790475,20.45030411511891]},"geometry_name":"the_geom","properties":{"NAME":"Thai Binh","bbox":[106.33302962790475,20.45030411511891,106.33302962790475,20.45030411511891]}},{"type":"Feature","id":"ne_10m_populated_places.28","geometry":{"type":"Point","coordinates":[109.31599868366044,13.082004024264734]},"geometry_name":"the_geom","properties":{"NAME":"Tuy Hoa","bbox":[109.31599868366044,13.082004024264734,109.31599868366044,13.082004024264734]}},{"type":"Feature","id":"ne_10m_populated_places.29","geometry":{"type":"Point","coordinates":[106.65274554684555,10.969074077424182]},"geometry_name":"the_geom","properties":{"NAME":"Thu Dau Mot","bbox":[106.65274554684555,10.969074077424182,106.65274554684555,10.969074077424182]}},{"type":"Feature","id":"ne_10m_populated_places.30","geometry":{"type":"Point","coordinates":[107.13330066061451,16.849998103207497]},"geometry_name":"the_geom","properties":{"NAME":"Dong Ha","bbox":[107.13330066061451,16.849998103207497,107.13330066061451,16.849998103207497]}},{"type":"Feature","id":"ne_10m_populated_places.31","geometry":{"type":"Point","coordinates":[105.63599756179525,10.46700013054675]},"geometry_name":"the_geom","properties":{"NAME":"Cao Lanh","bbox":[105.63599756179525,10.46700013054675,105.63599756179525,10.46700013054675]}},{"type":"Feature","id":"ne_10m_populated_places.32","geometry":{"type":"Point","coordinates":[106.37499661484685,10.234997997750156]},"geometry_name":"the_geom","properties":{"NAME":"Truc Giang","bbox":[106.37499661484685,10.234997997750156,106.37499661484685,10.234997997750156]}},{"type":"Feature","id":"ne_10m_populated_places.33","geometry":{"type":"Point","coordinates":[106.33400167891898,9.93400208678969]},"geometry_name":"the_geom","properties":{"NAME":"Tra Vinh","bbox":[106.33400167891898,9.93400208678969,106.33400167891898,9.93400208678969]}},{"type":"Feature","id":"ne_10m_populated_places.34","geometry":{"type":"Point","coordinates":[105.9640025572258,10.25600399699897]},"geometry_name":"the_geom","properties":{"NAME":"Vinh Long","bbox":[105.9640025572258,10.25600399699897,105.9640025572258,10.25600399699897]}},{"type":"Feature","id":"ne_10m_populated_places.35","geometry":{"type":"Point","coordinates":[106.26800464433961,22.66399805495257]},"geometry_name":"the_geom","properties":{"NAME":"Cao Bang","bbox":[106.26800464433961,22.66399805495257,106.26800464433961,22.66399805495257]}},{"type":"Feature","id":"ne_10m_populated_places.36","geometry":{"type":"Point","coordinates":[-87.29000053844396,15.059997106034928]},"geometry_name":"the_geom","properties":{"NAME":"Yoro","bbox":[-87.29000053844396,15.059997106034928,-87.29000053844396,15.059997106034928]}},{"type":"Feature","id":"ne_10m_populated_places.37","geometry":{"type":"Point","coordinates":[-88.16669953722379,14.33300405794239]},"geometry_name":"the_geom","properties":{"NAME":"La Esperanza","bbox":[-88.16669953722379,14.33300405794239,-88.16669953722379,14.33300405794239]}},{"type":"Feature","id":"ne_10m_populated_places.38","geometry":{"type":"Point","coordinates":[-87.68400256845393,14.319999028132543]},"geometry_name":"the_geom","properties":{"NAME":"La Paz","bbox":[-87.68400256845393,14.319999028132543,-87.68400256845393,14.319999028132543]}},{"type":"Feature","id":"ne_10m_populated_places.39","geometry":{"type":"Point","coordinates":[-88.235999625641,14.91900304258661]},"geometry_name":"the_geom","properties":{"NAME":"Santa Barbara","bbox":[-88.235999625641,14.91900304258661,-88.235999625641,14.91900304258661]}},{"type":"Feature","id":"ne_10m_populated_places.40","geometry":{"type":"Point","coordinates":[-88.58330051218616,14.583303057002922]},"geometry_name":"the_geom","properties":{"NAME":"Gracias","bbox":[-88.58330051218616,14.583303057002922,-88.58330051218616,14.583303057002922]}},{"type":"Feature","id":"ne_10m_populated_places.41","geometry":{"type":"Point","coordinates":[-89.18199854735434,14.43699911938154]},"geometry_name":"the_geom","properties":{"NAME":"Nueva Ocotepeque","bbox":[-89.18199854735434,14.43699911938154,-89.18199854735434,14.43699911938154]}},{"type":"Feature","id":"ne_10m_populated_places.42","geometry":{"type":"Point","coordinates":[-86.8509985369858,13.943996986701904]},"geometry_name":"the_geom","properties":{"NAME":"Yuscaran","bbox":[-86.8509985369858,13.943996986701904,-86.8509985369858,13.943996986701904]}},{"type":"Feature","id":"ne_10m_populated_places.43","geometry":{"type":"Point","coordinates":[-74.11842526340854,18.63393472721964]},"geometry_name":"the_geom","properties":{"NAME":"Jeremie","bbox":[-74.11842526340854,18.63393472721964,-74.11842526340854,18.63393472721964]}},{"type":"Feature","id":"ne_10m_populated_places.44","geometry":{"type":"Point","coordinates":[-72.8294845231228,19.93176007609145]},"geometry_name":"the_geom","properties":{"NAME":"Port-De-Paix","bbox":[-72.8294845231228,19.93176007609145,-72.8294845231228,19.93176007609145]}},{"type":"Feature","id":"ne_10m_populated_places.45","geometry":{"type":"Point","coordinates":[-72.00399560107024,19.1430000867162]},"geometry_name":"the_geom","properties":{"NAME":"Hinche","bbox":[-72.00399560107024,19.1430000867162,-72.00399560107024,19.1430000867162]}},{"type":"Feature","id":"ne_10m_populated_places.46","geometry":{"type":"Point","coordinates":[-71.8448395405403,19.66556703349886]},"geometry_name":"the_geom","properties":{"NAME":"Fort-Liberte","bbox":[-71.8448395405403,19.66556703349886,-71.8448395405403,19.66556703349886]}},{"type":"Feature","id":"ne_10m_populated_places.47","geometry":{"type":"Point","coordinates":[-72.53700258094494,18.234999026379057]},"geometry_name":"the_geom","properties":{"NAME":"Jacmel","bbox":[-72.53700258094494,18.234999026379057,-72.53700258094494,18.234999026379057]}},{"type":"Feature","id":"ne_10m_populated_places.48","geometry":{"type":"Point","coordinates":[27.225999615690228,41.74299916992038]},"geometry_name":"the_geom","properties":{"NAME":"Kirklareli","bbox":[27.225999615690228,41.74299916992038,27.225999615690228,41.74299916992038]}},{"type":"Feature","id":"ne_10m_populated_places.49","geometry":{"type":"Point","coordinates":[29.982996597707256,40.149999022269185]},"geometry_name":"the_geom","properties":{"NAME":"Bilecik","bbox":[29.982996597707256,40.149999022269185,29.982996597707256,40.149999022269185]}},{"type":"Feature","id":"ne_10m_populated_places.50","geometry":{"type":"Point","coordinates":[30.400002511183743,40.76666113606262]},"geometry_name":"the_geom","properties":{"NAME":"Sakarya","bbox":[30.400002511183743,40.76666113606262,30.400002511183743,40.76666113606262]}},{"type":"Feature","id":"ne_10m_populated_places.51","geometry":{"type":"Point","coordinates":[33.78300349052358,41.389002152589]},"geometry_name":"the_geom","properties":{"NAME":"Kastamonu","bbox":[33.78300349052358,41.389002152589,33.78300349052358,41.389002152589]}},{"type":"Feature","id":"ne_10m_populated_places.52","geometry":{"type":"Point","coordinates":[30.28333553854071,37.71666011092282]},"geometry_name":"the_geom","properties":{"NAME":"Burdur","bbox":[30.28333553854071,37.71666011092282,30.28333553854071,37.71666011092282]}},{"type":"Feature","id":"ne_10m_populated_places.53","geometry":{"type":"Point","coordinates":[34.17100260079587,39.14199916537905]},"geometry_name":"the_geom","properties":{"NAME":"Kirsehir","bbox":[34.17100260079587,39.14199916537905,34.17100260079587,39.14199916537905]}},{"type":"Feature","id":"ne_10m_populated_places.54","geometry":{"type":"Point","coordinates":[34.72399851734997,38.62400403564931]},"geometry_name":"the_geom","properties":{"NAME":"Nevsehir","bbox":[34.72399851734997,38.62400403564931,34.72399851734997,38.62400403564931]}},{"type":"Feature","id":"ne_10m_populated_places.55","geometry":{"type":"Point","coordinates":[36.116676558439394,36.233334092927635]},"geometry_name":"the_geom","properties":{"NAME":"Antioch","bbox":[36.116676558439394,36.233334092927635,36.116676558439394,36.233334092927635]}},{"type":"Feature","id":"ne_10m_populated_places.56","geometry":{"type":"Point","coordinates":[38.390004520672335,40.913001149121726]},"geometry_name":"the_geom","properties":{"NAME":"Giresun","bbox":[38.390004520672335,40.913001149121726,38.390004520672335,40.913001149121726]}},{"type":"Feature","id":"ne_10m_populated_places.57","geometry":{"type":"Point","coordinates":[35.15300149966771,42.02299801774967]},"geometry_name":"the_geom","properties":{"NAME":"Sinop","bbox":[35.15300149966771,42.02299801774967,35.15300149966771,42.02299801774967]}},{"type":"Feature","id":"ne_10m_populated_places.58","geometry":{"type":"Point","coordinates":[36.5630045214906,40.305996165228464]},"geometry_name":"the_geom","properties":{"NAME":"Tokat","bbox":[36.5630045214906,40.305996165228464,36.5630045214906,40.305996165228464]}},{"type":"Feature","id":"ne_10m_populated_places.59","geometry":{"type":"Point","coordinates":[41.8179965353429,41.18300114329429]},"geometry_name":"the_geom","properties":{"NAME":"Artvin","bbox":[41.8179965353429,41.18300114329429,41.8179965353429,41.18300114329429]}},{"type":"Feature","id":"ne_10m_populated_places.60","geometry":{"type":"Point","coordinates":[40.49800255801756,38.88500403553252]},"geometry_name":"the_geom","properties":{"NAME":"Bingol","bbox":[40.49800255801756,38.88500403553252,40.49800255801756,38.88500403553252]}},{"type":"Feature","id":"ne_10m_populated_places.61","geometry":{"type":"Point","coordinates":[42.1229976473071,38.394000118037695]},"geometry_name":"the_geom","properties":{"NAME":"Bitlis","bbox":[42.1229976473071,38.394000118037695,42.1229976473071,38.394000118037695]}},{"type":"Feature","id":"ne_10m_populated_places.62","geometry":{"type":"Point","coordinates":[32.225000000000136,-0.3088888999998858]},"geometry_name":"the_geom","properties":{"NAME":"Kalangala","bbox":[32.225000000000136,-0.3088888999998858,32.225000000000136,-0.3088888999998858]}},{"type":"Feature","id":"ne_10m_populated_places.63","geometry":{"type":"Point","coordinates":[33.621003593310206,40.60700101230674]},"geometry_name":"the_geom","properties":{"NAME":"Cankiri","bbox":[33.621003593310206,40.60700101230674,33.621003593310206,40.60700101230674]}},{"type":"Feature","id":"ne_10m_populated_places.64","geometry":{"type":"Point","coordinates":[34.694001625412795,37.97600411582823]},"geometry_name":"the_geom","properties":{"NAME":"Nigde","bbox":[34.694001625412795,37.97600411582823,34.694001625412795,37.97600411582823]}},{"type":"Feature","id":"ne_10m_populated_places.65","geometry":{"type":"Point","coordinates":[34.81499748509685,39.817998092919765]},"geometry_name":"the_geom","properties":{"NAME":"Yozgat","bbox":[34.81499748509685,39.817998092919765,34.81499748509685,39.817998092919765]}},{"type":"Feature","id":"ne_10m_populated_places.66","geometry":{"type":"Point","coordinates":[39.48399961590593,40.46400012852314]},"geometry_name":"the_geom","properties":{"NAME":"Gumushane","bbox":[39.48399961590593,40.46400012852314,39.48399961590593,40.46400012852314]}},{"type":"Feature","id":"ne_10m_populated_places.67","geometry":{"type":"Point","coordinates":[41.9329985768905,37.944000072588665]},"geometry_name":"the_geom","properties":{"NAME":"Siirt","bbox":[41.9329985768905,37.944000072588665,41.9329985768905,37.944000072588665]}},{"type":"Feature","id":"ne_10m_populated_places.68","geometry":{"type":"Point","coordinates":[39.53330150055899,39.11670002355953]},"geometry_name":"the_geom","properties":{"NAME":"Tunceli","bbox":[39.53330150055899,39.11670002355953,39.53330150055899,39.11670002355953]}},{"type":"Feature","id":"ne_10m_populated_places.69","geometry":{"type":"Point","coordinates":[33.936111100000005,1.460833300000104]},"geometry_name":"the_geom","properties":{"NAME":"Kumi","bbox":[33.936111100000005,1.460833300000104,33.936111100000005,1.460833300000104]}},{"type":"Feature","id":"ne_10m_populated_places.70","geometry":{"type":"Point","coordinates":[33.15944439999993,1.7388889000000631]},"geometry_name":"the_geom","properties":{"NAME":"Kaberamaido","bbox":[33.15944439999993,1.7388889000000631,33.15944439999993,1.7388889000000631]}},{"type":"Feature","id":"ne_10m_populated_places.71","geometry":{"type":"Point","coordinates":[32.88861110000005,0.7024999999999864]},"geometry_name":"the_geom","properties":{"NAME":"Kayunga","bbox":[32.88861110000005,0.7024999999999864,32.88861110000005,0.7024999999999864]}},{"type":"Feature","id":"ne_10m_populated_places.72","geometry":{"type":"Point","coordinates":[33.46861110000009,0.6091667000000598]},"geometry_name":"the_geom","properties":{"NAME":"Iganga","bbox":[33.46861110000009,0.6091667000000598,33.46861110000009,0.6091667000000598]}},{"type":"Feature","id":"ne_10m_populated_places.73","geometry":{"type":"Point","coordinates":[33.119722200000126,0.9472222000000556]},"geometry_name":"the_geom","properties":{"NAME":"Kamuli","bbox":[33.119722200000126,0.9472222000000556,33.119722200000126,0.9472222000000556]}},{"type":"Feature","id":"ne_10m_populated_places.74","geometry":{"type":"Point","coordinates":[33.70944440000011,1.1450000000000955]},"geometry_name":"the_geom","properties":{"NAME":"Pallisa","bbox":[33.70944440000011,1.1450000000000955,33.70944440000011,1.1450000000000955]}},{"type":"Feature","id":"ne_10m_populated_places.75","geometry":{"type":"Point","coordinates":[32.31361110000012,0.22500000000013642]},"geometry_name":"the_geom","properties":{"NAME":"Mpigi","bbox":[32.31361110000012,0.22500000000013642,32.31361110000012,0.22500000000013642]}},{"type":"Feature","id":"ne_10m_populated_places.76","geometry":{"type":"Point","coordinates":[31.809722199999953,3.3613889000000654]},"geometry_name":"the_geom","properties":{"NAME":"Adjumani","bbox":[31.809722199999953,3.3613889000000654,31.809722199999953,3.3613889000000654]}},{"type":"Feature","id":"ne_10m_populated_places.77","geometry":{"type":"Point","coordinates":[31.10250000000002,2.4758333000000334]},"geometry_name":"the_geom","properties":{"NAME":"Nebbi","bbox":[31.10250000000002,2.4758333000000334,31.10250000000002,2.4758333000000334]}},{"type":"Feature","id":"ne_10m_populated_places.78","geometry":{"type":"Point","coordinates":[31.77416670000008,0.9161111000000233]},"geometry_name":"the_geom","properties":{"NAME":"Kiboga","bbox":[31.77416670000008,0.9161111000000233,31.77416670000008,0.9161111000000233]}},{"type":"Feature","id":"ne_10m_populated_places.79","geometry":{"type":"Point","coordinates":[32.45638889999992,1.3088888999999995]},"geometry_name":"the_geom","properties":{"NAME":"Nakasongola","bbox":[32.45638889999992,1.3088888999999995,32.45638889999992,1.3088888999999995]}},{"type":"Feature","id":"ne_10m_populated_places.80","geometry":{"type":"Point","coordinates":[32.533299524864844,0.5832991056146284]},"geometry_name":"the_geom","properties":{"NAME":"Bombo","bbox":[32.533299524864844,0.5832991056146284,32.533299524864844,0.5832991056146284]}},{"type":"Feature","id":"ne_10m_populated_places.81","geometry":{"type":"Point","coordinates":[31.71500000000009,1.6744444000001408]},"geometry_name":"the_geom","properties":{"NAME":"Masindi","bbox":[31.71500000000009,1.6744444000001408,31.71500000000009,1.6744444000001408]}},{"type":"Feature","id":"ne_10m_populated_places.82","geometry":{"type":"Point","coordinates":[30.27500161597942,0.671004121125236]},"geometry_name":"the_geom","properties":{"NAME":"Fort Portal","bbox":[30.27500161597942,0.671004121125236,30.27500161597942,0.671004121125236]}},{"type":"Feature","id":"ne_10m_populated_places.83","geometry":{"type":"Point","coordinates":[31.06666670000004,0.8000000000000114]},"geometry_name":"the_geom","properties":{"NAME":"Kibale","bbox":[31.06666670000004,0.8000000000000114,31.06666670000004,0.8000000000000114]}},{"type":"Feature","id":"ne_10m_populated_places.84","geometry":{"type":"Point","coordinates":[34.300000000000125,1.2500000000000568]},"geometry_name":"the_geom","properties":{"NAME":"Sironko","bbox":[34.300000000000125,1.2500000000000568,34.300000000000125,1.2500000000000568]}},{"type":"Feature","id":"ne_10m_populated_places.85","geometry":{"type":"Point","coordinates":[34.07583330000011,0.454444399999943]},"geometry_name":"the_geom","properties":{"NAME":"Busia","bbox":[34.07583330000011,0.454444399999943,34.07583330000011,0.454444399999943]}},{"type":"Feature","id":"ne_10m_populated_places.86","geometry":{"type":"Point","coordinates":[33.96611110000009,1.891111100000046]},"geometry_name":"the_geom","properties":{"NAME":"Katakwi","bbox":[33.96611110000009,1.891111100000046,33.96611110000009,1.891111100000046]}},{"type":"Feature","id":"ne_10m_populated_places.87","geometry":{"type":"Point","coordinates":[17.910999568505588,47.09099713733832]},"geometry_name":"the_geom","properties":{"NAME":"Veszprem","bbox":[17.910999568505588,47.09099713733832,17.910999568505588,47.09099713733832]}},{"type":"Feature","id":"ne_10m_populated_places.88","geometry":{"type":"Point","coordinates":[16.83999958610434,46.844001026631986]},"geometry_name":"the_geom","properties":{"NAME":"Zalaegerszeg","bbox":[16.83999958610434,46.844001026631986,16.83999958610434,46.844001026631986]}},{"type":"Feature","id":"ne_10m_populated_places.89","geometry":{"type":"Point","coordinates":[18.432999568271782,47.5499971770771]},"geometry_name":"the_geom","properties":{"NAME":"Tatabanya","bbox":[18.432999568271782,47.5499971770771,18.432999568271782,47.5499971770771]}},{"type":"Feature","id":"ne_10m_populated_places.90","geometry":{"type":"Point","coordinates":[18.712998581584827,46.34399711484775]},"geometry_name":"the_geom","properties":{"NAME":"Szekszard","bbox":[18.712998581584827,46.34399711484775,18.712998581584827,46.34399711484775]}},{"type":"Feature","id":"ne_10m_populated_places.91","geometry":{"type":"Point","coordinates":[19.82600162636612,48.10500007944995]},"geometry_name":"the_geom","properties":{"NAME":"Salgotarjan","bbox":[19.82600162636612,48.10500007944995,19.82600162636612,48.10500007944995]}},{"type":"Feature","id":"ne_10m_populated_places.92","geometry":{"type":"Point","coordinates":[21.101004568360736,46.6720021102783]},"geometry_name":"the_geom","properties":{"NAME":"Bekescsaba","bbox":[21.101004568360736,46.6720021102783,21.101004568360736,46.6720021102783]}},{"type":"Feature","id":"ne_10m_populated_places.93","geometry":{"type":"Point","coordinates":[20.38300257844014,47.89500313623637]},"geometry_name":"the_geom","properties":{"NAME":"Eger","bbox":[20.38300257844014,47.89500313623637,20.38300257844014,47.89500313623637]}},{"type":"Feature","id":"ne_10m_populated_places.94","geometry":{"type":"Point","coordinates":[30.26416670000009,-0.8794444000000112]},"geometry_name":"the_geom","properties":{"NAME":"Ntungamo","bbox":[30.26416670000009,-0.8794444000000112,30.26416670000009,-0.8794444000000112]}},{"type":"Feature","id":"ne_10m_populated_places.95","geometry":{"type":"Point","coordinates":[29.698333300000115,-1.3538889000000154]},"geometry_name":"the_geom","properties":{"NAME":"Kisoro","bbox":[29.698333300000115,-1.3538889000000154,29.698333300000115,-1.3538889000000154]}},{"type":"Feature","id":"ne_10m_populated_places.96","geometry":{"type":"Point","coordinates":[29.566701602030776,-2.483297944739661]},"geometry_name":"the_geom","properties":{"NAME":"Gikongoro","bbox":[29.566701602030776,-2.483297944739661,29.566701602030776,-2.483297944739661]}},{"type":"Feature","id":"ne_10m_populated_places.97","geometry":{"type":"Point","coordinates":[29.34999959191356,-2.050001985334575]},"geometry_name":"the_geom","properties":{"NAME":"Kibuye","bbox":[29.34999959191356,-2.050001985334575,29.34999959191356,-2.050001985334575]}},{"type":"Feature","id":"ne_10m_populated_places.98","geometry":{"type":"Point","coordinates":[30.533301584478863,-2.1666959318139902]},"geometry_name":"the_geom","properties":{"NAME":"Kibungo","bbox":[30.533301584478863,-2.1666959318139902,30.533301584478863,-2.1666959318139902]}},{"type":"Feature","id":"ne_10m_populated_places.99","geometry":{"type":"Point","coordinates":[23.274000615434716,45.045000035170006]},"geometry_name":"the_geom","properties":{"NAME":"Targu Jiu","bbox":[23.274000615434716,45.045000035170006,23.274000615434716,45.045000035170006]}},{"type":"Feature","id":"ne_10m_populated_places.100","geometry":{"type":"Point","coordinates":[24.371001555854207,44.434998142208656]},"geometry_name":"the_geom","properties":{"NAME":"Slatina","bbox":[24.371001555854207,44.434998142208656,24.371001555854207,44.434998142208656]}},{"type":"Feature","id":"ne_10m_populated_places.101","geometry":{"type":"Point","coordinates":[25.286706542462184,43.90163106989155]},"geometry_name":"the_geom","properties":{"NAME":"Alexandria","bbox":[25.286706542462184,43.90163106989155,25.286706542462184,43.90163106989155]}},{"type":"Feature","id":"ne_10m_populated_places.102","geometry":{"type":"Point","coordinates":[25.459002501984173,44.93799912854496]},"geometry_name":"the_geom","properties":{"NAME":"Targoviste","bbox":[25.459002501984173,44.93799912854496,25.459002501984173,44.93799912854496]}},{"type":"Feature","id":"ne_10m_populated_places.103","geometry":{"type":"Point","coordinates":[25.83999950218447,43.92999910617101]},"geometry_name":"the_geom","properties":{"NAME":"Giurgiu","bbox":[25.83999950218447,43.92999910617101,25.83999950218447,43.92999910617101]}},{"type":"Feature","id":"ne_10m_populated_places.104","geometry":{"type":"Point","coordinates":[27.381996593165866,44.56999805655312]},"geometry_name":"the_geom","properties":{"NAME":"Slobozia","bbox":[27.381996593165866,44.56999805655312,27.381996593165866,44.56999805655312]}},{"type":"Feature","id":"ne_10m_populated_places.105","geometry":{"type":"Point","coordinates":[36.10500350660266,32.625000137740756]},"geometry_name":"the_geom","properties":{"NAME":"Dar'a","bbox":[36.10500350660266,32.625000137740756,36.10500350660266,32.625000137740756]}},{"type":"Feature","id":"ne_10m_populated_places.106","geometry":{"type":"Point","coordinates":[7.3449994876432925,47.36999712580081]},"geometry_name":"the_geom","properties":{"NAME":"Delemont","bbox":[7.3449994876432925,47.36999712580081,7.3449994876432925,47.36999712580081]}},{"type":"Feature","id":"ne_10m_populated_places.107","geometry":{"type":"Point","coordinates":[6.922998615397546,46.99899914474071]},"geometry_name":"the_geom","properties":{"NAME":"Neuchatel","bbox":[6.922998615397546,46.99899914474071,6.922998615397546,46.99899914474071]}},{"type":"Feature","id":"ne_10m_populated_places.108","geometry":{"type":"Point","coordinates":[8.034003610477498,47.390004100198894]},"geometry_name":"the_geom","properties":{"NAME":"Aarau","bbox":[8.034003610477498,47.390004100198894,8.034003610477498,47.390004100198894]}},{"type":"Feature","id":"ne_10m_populated_places.109","geometry":{"type":"Point","coordinates":[8.383302546723826,46.95000307389006]},"geometry_name":"the_geom","properties":{"NAME":"Stans","bbox":[8.383302546723826,46.95000307389006,8.383302546723826,46.95000307389006]}},{"type":"Feature","id":"ne_10m_populated_places.110","geometry":{"type":"Point","coordinates":[7.3539994819330445,46.239003028557875]},"geometry_name":"the_geom","properties":{"NAME":"Sion","bbox":[7.3539994819330445,46.239003028557875,7.3539994819330445,46.239003028557875]}},{"type":"Feature","id":"ne_10m_populated_places.111","geometry":{"type":"Point","coordinates":[9.283302472138416,47.38329903329509]},"geometry_name":"the_geom","properties":{"NAME":"Herisau","bbox":[9.283302472138416,47.38329903329509,9.283302472138416,47.38329903329509]}},{"type":"Feature","id":"ne_10m_populated_places.112","geometry":{"type":"Point","coordinates":[9.361998557241634,47.42299806668797]},"geometry_name":"the_geom","properties":{"NAME":"Saint Gallen","bbox":[9.361998557241634,47.42299806668797,9.361998557241634,47.42299806668797]}},{"type":"Feature","id":"ne_10m_populated_places.113","geometry":{"type":"Point","coordinates":[9.019998608751848,46.19700013166164]},"geometry_name":"the_geom","properties":{"NAME":"Bellinzona","bbox":[9.019998608751848,46.19700013166164,9.019998608751848,46.19700013166164]}},{"type":"Feature","id":"ne_10m_populated_places.114","geometry":{"type":"Point","coordinates":[9.066699586732966,47.050002035926695]},"geometry_name":"the_geom","properties":{"NAME":"Glarus","bbox":[9.066699586732966,47.050002035926695,9.066699586732966,47.050002035926695]}},{"type":"Feature","id":"ne_10m_populated_places.115","geometry":{"type":"Point","coordinates":[8.632998523330116,47.70600309067038]},"geometry_name":"the_geom","properties":{"NAME":"Schaffhausen","bbox":[8.632998523330116,47.70600309067038,8.632998523330116,47.70600309067038]}},{"type":"Feature","id":"ne_10m_populated_places.116","geometry":{"type":"Point","coordinates":[8.648001602841134,47.0199960423883]},"geometry_name":"the_geom","properties":{"NAME":"Schwyz","bbox":[8.648001602841134,47.0199960423883,8.648001602841134,47.0199960423883]}},{"type":"Feature","id":"ne_10m_populated_places.117","geometry":{"type":"Point","coordinates":[9.108000501947004,47.56799716565638]},"geometry_name":"the_geom","properties":{"NAME":"Frauenfeld","bbox":[9.108000501947004,47.56799716565638,9.108000501947004,47.56799716565638]}},{"type":"Feature","id":"ne_10m_populated_places.118","geometry":{"type":"Point","coordinates":[8.638002583700825,46.87900214442362]},"geometry_name":"the_geom","properties":{"NAME":"Altdorf","bbox":[8.638002583700825,46.87900214442362,8.638002583700825,46.87900214442362]}},{"type":"Feature","id":"ne_10m_populated_places.119","geometry":{"type":"Point","coordinates":[8.487000564994787,47.178999030533475]},"geometry_name":"the_geom","properties":{"NAME":"Zug","bbox":[8.487000564994787,47.178999030533475,8.487000564994787,47.178999030533475]}},{"type":"Feature","id":"ne_10m_populated_places.120","geometry":{"type":"Point","coordinates":[15.647004553684724,60.613002035558]},"geometry_name":"the_geom","properties":{"NAME":"Falun","bbox":[15.647004553684724,60.613002035558,15.647004553684724,60.613002035558]}},{"type":"Feature","id":"ne_10m_populated_places.121","geometry":{"type":"Point","coordinates":[17.015004513127508,58.76399717776047]},"geometry_name":"the_geom","properties":{"NAME":"Nykoping","bbox":[17.015004513127508,58.76399717776047,17.015004513127508,58.76399717776047]}},{"type":"Feature","id":"ne_10m_populated_places.122","geometry":{"type":"Point","coordinates":[17.934003617455744,62.633997039075155]},"geometry_name":"the_geom","properties":{"NAME":"Harnosand","bbox":[17.934003617455744,62.633997039075155,17.934003617455744,62.633997039075155]}},{"type":"Feature","id":"ne_10m_populated_places.123","geometry":{"type":"Point","coordinates":[15.296004610905186,56.20300218589796]},"geometry_name":"the_geom","properties":{"NAME":"Karlskrona","bbox":[15.296004610905186,56.20300218589796,15.296004610905186,56.20300218589796]}},{"type":"Feature","id":"ne_10m_populated_places.124","geometry":{"type":"Point","coordinates":[23.58000058676606,46.077003131344384]},"geometry_name":"the_geom","properties":{"NAME":"Alba Lulia","bbox":[23.58000058676606,46.077003131344384,23.58000058676606,46.077003131344384]}},{"type":"Feature","id":"ne_10m_populated_places.125","geometry":{"type":"Point","coordinates":[24.51300358027089,47.138004094605435]},"geometry_name":"the_geom","properties":{"NAME":"Bistrita","bbox":[24.51300358027089,47.138004094605435,24.51300358027089,47.138004094605435]}},{"type":"Feature","id":"ne_10m_populated_places.126","geometry":{"type":"Point","coordinates":[22.916673570429055,45.88332304241237]},"geometry_name":"the_geom","properties":{"NAME":"Deva","bbox":[22.916673570429055,45.88332304241237,22.916673570429055,45.88332304241237]}},{"type":"Feature","id":"ne_10m_populated_places.127","geometry":{"type":"Point","coordinates":[23.063004481886935,47.17500309661466]},"geometry_name":"the_geom","properties":{"NAME":"Zalau","bbox":[23.063004481886935,47.17500309661466,23.063004481886935,47.17500309661466]}},{"type":"Feature","id":"ne_10m_populated_places.128","geometry":{"type":"Point","coordinates":[22.88500248031181,47.791998163530366]},"geometry_name":"the_geom","properties":{"NAME":"Satu Mare","bbox":[22.88500248031181,47.791998163530366,22.88500248031181,47.791998163530366]}},{"type":"Feature","id":"ne_10m_populated_places.129","geometry":{"type":"Point","coordinates":[24.382998624695688,45.109998044898646]},"geometry_name":"the_geom","properties":{"NAME":"Rimnicu Vilcea","bbox":[24.382998624695688,45.109998044898646,24.382998624695688,45.109998044898646]}},{"type":"Feature","id":"ne_10m_populated_places.130","geometry":{"type":"Point","coordinates":[25.793001481034935,45.86799611138031]},"geometry_name":"the_geom","properties":{"NAME":"Sfintu-Gheorghe","bbox":[25.793001481034935,45.86799611138031,25.793001481034935,45.86799611138031]}},{"type":"Feature","id":"ne_10m_populated_places.131","geometry":{"type":"Point","coordinates":[25.524000511712984,46.3609980785763]},"geometry_name":"the_geom","properties":{"NAME":"Miercurea Cuic","bbox":[25.524000511712984,46.3609980785763,25.524000511712984,46.3609980785763]}},{"type":"Feature","id":"ne_10m_populated_places.132","geometry":{"type":"Point","coordinates":[26.38299656508184,46.94000405474975]},"geometry_name":"the_geom","properties":{"NAME":"Piatra-Neamt","bbox":[26.38299656508184,46.94000405474975,26.38299656508184,46.94000405474975]}},{"type":"Feature","id":"ne_10m_populated_places.133","geometry":{"type":"Point","coordinates":[27.96900353877851,45.291996145876226]},"geometry_name":"the_geom","properties":{"NAME":"Braila","bbox":[27.96900353877851,45.291996145876226,27.96900353877851,45.291996145876226]}},{"type":"Feature","id":"ne_10m_populated_places.134","geometry":{"type":"Point","coordinates":[27.73333859066895,46.6333290755727]},"geometry_name":"the_geom","properties":{"NAME":"Vaslui","bbox":[27.73333859066895,46.6333290755727,27.73333859066895,46.6333290755727]}},{"type":"Feature","id":"ne_10m_populated_places.135","geometry":{"type":"Point","coordinates":[82.18330255361178,28.350000036941594]},"geometry_name":"the_geom","properties":{"NAME":"Salyan","bbox":[82.18330255361178,28.350000036941594,82.18330255361178,28.350000036941594]}},{"type":"Feature","id":"ne_10m_populated_places.136","geometry":{"type":"Point","coordinates":[97.96899665285014,19.301004050010818]},"geometry_name":"the_geom","properties":{"NAME":"Mae Hong Son","bbox":[97.96899665285014,19.301004050010818,97.96899665285014,19.301004050010818]}},{"type":"Feature","id":"ne_10m_populated_places.137","geometry":{"type":"Point","coordinates":[98.53399857436312,8.451000085799024]},"geometry_name":"the_geom","properties":{"NAME":"Phangnga","bbox":[98.53399857436312,8.451000085799024,98.53399857436312,8.451000085799024]}},{"type":"Feature","id":"ne_10m_populated_places.138","geometry":{"type":"Point","coordinates":[98.63800257192008,9.962001094509105]},"geometry_name":"the_geom","properties":{"NAME":"Ranong","bbox":[98.63800257192008,9.962001094509105,98.63800257192008,9.962001094509105]}},{"type":"Feature","id":"ne_10m_populated_places.139","geometry":{"type":"Point","coordinates":[98.9119986654951,8.052003097019451]},"geometry_name":"the_geom","properties":{"NAME":"Krabi","bbox":[98.9119986654951,8.052003097019451,98.9119986654951,8.052003097019451]}},{"type":"Feature","id":"ne_10m_populated_places.140","geometry":{"type":"Point","coordinates":[100.08099956023182,7.614998979778875]},"geometry_name":"the_geom","properties":{"NAME":"Phatthalung","bbox":[100.08099956023182,7.614998979778875,100.08099956023182,7.614998979778875]}},{"type":"Feature","id":"ne_10m_populated_places.141","geometry":{"type":"Point","coordinates":[100.06669862788681,6.616701098860688]},"geometry_name":"the_geom","properties":{"NAME":"Satun","bbox":[100.06669862788681,6.616701098860688,100.06669862788681,6.616701098860688]}},{"type":"Feature","id":"ne_10m_populated_places.142","geometry":{"type":"Point","coordinates":[99.07399856270865,18.503001136334092]},"geometry_name":"the_geom","properties":{"NAME":"Lamphun","bbox":[99.07399856270865,18.503001136334092,99.07399856270865,18.503001136334092]}},{"type":"Feature","id":"ne_10m_populated_places.143","geometry":{"type":"Point","coordinates":[99.5290026685285,16.472997036926074]},"geometry_name":"the_geom","properties":{"NAME":"Kamphaeng Phet","bbox":[99.5290026685285,16.472997036926074,99.5290026685285,16.472997036926074]}},{"type":"Feature","id":"ne_10m_populated_places.144","geometry":{"type":"Point","coordinates":[100.34900167018702,16.439004045586273]},"geometry_name":"the_geom","properties":{"NAME":"Phichit","bbox":[100.34900167018702,16.439004045586273,100.34900167018702,16.439004045586273]}},{"type":"Feature","id":"ne_10m_populated_places.145","geometry":{"type":"Point","coordinates":[101.15900165270511,16.418997071188187]},"geometry_name":"the_geom","properties":{"NAME":"Phetchabun","bbox":[101.15900165270511,16.418997071188187,101.15900165270511,16.418997071188187]}},{"type":"Feature","id":"ne_10m_populated_places.146","geometry":{"type":"Point","coordinates":[100.12899660623191,14.471001046838808]},"geometry_name":"the_geom","properties":{"NAME":"Supham Buri","bbox":[100.12899660623191,14.471001046838808,100.12899660623191,14.471001046838808]}},{"type":"Feature","id":"ne_10m_populated_places.147","geometry":{"type":"Point","coordinates":[100.44999965707427,14.583303057002922]},"geometry_name":"the_geom","properties":{"NAME":"Ang Thong","bbox":[100.44999965707427,14.583303057002922,100.44999965707427,14.583303057002922]}},{"type":"Feature","id":"ne_10m_populated_places.148","geometry":{"type":"Point","coordinates":[100.12599969716382,15.179004017619036]},"geometry_name":"the_geom","properties":{"NAME":"Chainat","bbox":[100.12599969716382,15.179004017619036,100.12599969716382,15.179004017619036]}},{"type":"Feature","id":"ne_10m_populated_places.149","geometry":{"type":"Point","coordinates":[101.2159986929949,14.200002027815458]},"geometry_name":"the_geom","properties":{"NAME":"Nakhon Nayok","bbox":[101.2159986929949,14.200002027815458,101.2159986929949,14.200002027815458]}},{"type":"Feature","id":"ne_10m_populated_places.150","geometry":{"type":"Point","coordinates":[100.40100358622362,14.886998999346929]},"geometry_name":"the_geom","properties":{"NAME":"Sing Buri","bbox":[100.40100358622362,14.886998999346929,100.40100358622362,14.886998999346929]}},{"type":"Feature","id":"ne_10m_populated_places.151","geometry":{"type":"Point","coordinates":[100.06399859650327,13.817997066647024]},"geometry_name":"the_geom","properties":{"NAME":"Nakhon Pathom","bbox":[100.06399859650327,13.817997066647024,100.06399859650327,13.817997066647024]}},{"type":"Feature","id":"ne_10m_populated_places.152","geometry":{"type":"Point","coordinates":[99.80000168755203,11.802996046750025]},"geometry_name":"the_geom","properties":{"NAME":"Prachuap Khiri Khan","bbox":[99.80000168755203,11.802996046750025,99.80000168755203,11.802996046750025]}},{"type":"Feature","id":"ne_10m_populated_places.153","geometry":{"type":"Point","coordinates":[100.27400464131813,13.536000003632807]},"geometry_name":"the_geom","properties":{"NAME":"Samut Sakhon","bbox":[100.27400464131813,13.536000003632807,100.27400464131813,13.536000003632807]}},{"type":"Feature","id":"ne_10m_populated_places.154","geometry":{"type":"Point","coordinates":[100.00099863647586,13.412996992646015]},"geometry_name":"the_geom","properties":{"NAME":"Samut Songkhram","bbox":[100.00099863647586,13.412996992646015,100.00099863647586,13.412996992646015]}},{"type":"Feature","id":"ne_10m_populated_places.155","geometry":{"type":"Point","coordinates":[104.15099767658705,15.787998115095832]},"geometry_name":"the_geom","properties":{"NAME":"Yasothon","bbox":[104.15099767658705,15.787998115095832,104.15099767658705,15.787998115095832]}},{"type":"Feature","id":"ne_10m_populated_places.156","geometry":{"type":"Point","coordinates":[101.0760036543972,13.679001052899878]},"geometry_name":"the_geom","properties":{"NAME":"Chachoengsao","bbox":[101.0760036543972,13.679001052899878,101.0760036543972,13.679001052899878]}},{"type":"Feature","id":"ne_10m_populated_places.157","geometry":{"type":"Point","coordinates":[102.50900162356879,12.237003089438701]},"geometry_name":"the_geom","properties":{"NAME":"Trat","bbox":[102.50900162356879,12.237003089438701,102.50900162356879,12.237003089438701]}},{"type":"Feature","id":"ne_10m_populated_places.158","geometry":{"type":"Point","coordinates":[103.50900067650377,16.42799706547794]},"geometry_name":"the_geom","properties":{"NAME":"Kalasin","bbox":[103.50900067650377,16.42799706547794,103.50900067650377,16.42799706547794]}},{"type":"Feature","id":"ne_10m_populated_places.159","geometry":{"type":"Point","coordinates":[103.29800454295582,16.183998029323504]},"geometry_name":"the_geom","properties":{"NAME":"Maha Sarakham","bbox":[103.29800454295582,16.183998029323504,103.29800454295582,16.183998029323504]}},{"type":"Feature","id":"ne_10m_populated_places.160","geometry":{"type":"Point","coordinates":[103.65499863483916,16.050995999196516]},"geometry_name":"the_geom","properties":{"NAME":"Roi Et","bbox":[103.65499863483916,16.050995999196516,103.65499863483916,16.050995999196516]}},{"type":"Feature","id":"ne_10m_populated_places.161","geometry":{"type":"Point","coordinates":[101.25000062045217,6.864003023369264]},"geometry_name":"the_geom","properties":{"NAME":"Pattani","bbox":[101.25000062045217,6.864003023369264,101.25000062045217,6.864003023369264]}},{"type":"Feature","id":"ne_10m_populated_places.162","geometry":{"type":"Point","coordinates":[31.247001495710947,-25.961003987691868]},"geometry_name":"the_geom","properties":{"NAME":"Piggs Peak","bbox":[31.247001495710947,-25.961003987691868,31.247001495710947,-25.961003987691868]}},{"type":"Feature","id":"ne_10m_populated_places.163","geometry":{"type":"Point","coordinates":[31.951998621305506,-26.454996043620838]},"geometry_name":"the_geom","properties":{"NAME":"Siteki","bbox":[31.951998621305506,-26.454996043620838,31.951998621305506,-26.454996043620838]}},{"type":"Feature","id":"ne_10m_populated_places.164","geometry":{"type":"Point","coordinates":[31.388004495277073,-26.495001056299657]},"geometry_name":"the_geom","properties":{"NAME":"Manzini","bbox":[31.388004495277073,-26.495001056299657,31.388004495277073,-26.495001056299657]}},{"type":"Feature","id":"ne_10m_populated_places.165","geometry":{"type":"Point","coordinates":[31.416696548561276,-26.999999926853548]},"geometry_name":"the_geom","properties":{"NAME":"Hlatikulu","bbox":[31.416696548561276,-26.999999926853548,31.416696548561276,-26.999999926853548]}},{"type":"Feature","id":"ne_10m_populated_places.166","geometry":{"type":"Point","coordinates":[-86.58299659251429,13.475997118157238]},"geometry_name":"the_geom","properties":{"NAME":"Somoto","bbox":[-86.58299659251429,13.475997118157238,-86.58299659251429,13.475997118157238]}},{"type":"Feature","id":"ne_10m_populated_places.167","geometry":{"type":"Point","coordinates":[-86.47299861133735,13.629996045931591]},"geometry_name":"the_geom","properties":{"NAME":"Ocotal","bbox":[-86.47299861133735,13.629996045931591,-86.47299861133735,13.629996045931591]}},{"type":"Feature","id":"ne_10m_populated_places.168","geometry":{"type":"Point","coordinates":[-8.650997534094358,40.64100310524765]},"geometry_name":"the_geom","properties":{"NAME":"Aveiro","bbox":[-8.650997534094358,40.64100310524765,-8.650997534094358,40.64100310524765]}},{"type":"Feature","id":"ne_10m_populated_places.169","geometry":{"type":"Point","coordinates":[-8.804996461868768,39.738996028530494]},"geometry_name":"the_geom","properties":{"NAME":"Leiria","bbox":[-8.804996461868768,39.738996028530494,-8.804996461868768,39.738996028530494]}},{"type":"Feature","id":"ne_10m_populated_places.170","geometry":{"type":"Point","coordinates":[-8.844137484362761,41.696235142665046]},"geometry_name":"the_geom","properties":{"NAME":"Viana Do Castelo","bbox":[-8.844137484362761,41.696235142665046,-8.844137484362761,41.696235142665046]}},{"type":"Feature","id":"ne_10m_populated_places.171","geometry":{"type":"Point","coordinates":[-6.337997512305094,38.912004018401376]},"geometry_name":"the_geom","properties":{"NAME":"Merida","bbox":[-6.337997512305094,38.912004018401376,-6.337997512305094,38.912004018401376]}},{"type":"Feature","id":"ne_10m_populated_places.172","geometry":{"type":"Point","coordinates":[-7.863002410191882,38.014002142688014]},"geometry_name":"the_geom","properties":{"NAME":"Beja","bbox":[-7.863002410191882,38.014002142688014,-7.863002410191882,38.014002142688014]}},{"type":"Feature","id":"ne_10m_populated_places.173","geometry":{"type":"Point","coordinates":[-7.9059955613049056,38.5599961146537]},"geometry_name":"the_geom","properties":{"NAME":"Evora","bbox":[-7.9059955613049056,38.5599961146537,-7.9059955613049056,38.5599961146537]}},{"type":"Feature","id":"ne_10m_populated_places.174","geometry":{"type":"Point","coordinates":[-7.423001549366745,39.290004109533356]},"geometry_name":"the_geom","properties":{"NAME":"Portalegre","bbox":[-7.423001549366745,39.290004109533356,-7.423001549366745,39.290004109533356]}},{"type":"Feature","id":"ne_10m_populated_places.175","geometry":{"type":"Point","coordinates":[-8.682002552483425,39.23100008342476]},"geometry_name":"the_geom","properties":{"NAME":"Santarem","bbox":[-8.682002552483425,39.23100008342476,-8.682002552483425,39.23100008342476]}},{"type":"Feature","id":"ne_10m_populated_places.176","geometry":{"type":"Point","coordinates":[-6.755003425781467,41.80799701416538]},"geometry_name":"the_geom","properties":{"NAME":"Braganca","bbox":[-6.755003425781467,41.80799701416538,-6.755003425781467,41.80799701416538]}},{"type":"Feature","id":"ne_10m_populated_places.177","geometry":{"type":"Point","coordinates":[-7.487999559095442,39.810996148331355]},"geometry_name":"the_geom","properties":{"NAME":"Castelo Branco","bbox":[-7.487999559095442,39.810996148331355,-7.487999559095442,39.810996148331355]}},{"type":"Feature","id":"ne_10m_populated_places.178","geometry":{"type":"Point","coordinates":[-7.262000511520284,40.54100414321101]},"geometry_name":"the_geom","properties":{"NAME":"Guarda","bbox":[-7.262000511520284,40.54100414321101,-7.262000511520284,40.54100414321101]}},{"type":"Feature","id":"ne_10m_populated_places.179","geometry":{"type":"Point","coordinates":[-7.910000431341302,40.656996108008]},"geometry_name":"the_geom","properties":{"NAME":"Viseu","bbox":[-7.910000431341302,40.656996108008,-7.910000431341302,40.656996108008]}},{"type":"Feature","id":"ne_10m_populated_places.180","geometry":{"type":"Point","coordinates":[-7.737002490137002,41.293998149321794]},"geometry_name":"the_geom","properties":{"NAME":"Vila Real","bbox":[-7.737002490137002,41.293998149321794,-7.737002490137002,41.293998149321794]}},{"type":"Feature","id":"ne_10m_populated_places.181","geometry":{"type":"Point","coordinates":[-16.415999520858463,14.344002101933313]},"geometry_name":"the_geom","properties":{"NAME":"Fatick","bbox":[-16.415999520858463,14.344002101933313,-16.415999520858463,14.344002101933313]}},{"type":"Feature","id":"ne_10m_populated_places.182","geometry":{"type":"Point","coordinates":[37.333296534498515,31.333302045819607]},"geometry_name":"the_geom","properties":{"NAME":"An Nabk","bbox":[37.333296534498515,31.333302045819607,37.333296534498515,31.333302045819607]}},{"type":"Feature","id":"ne_10m_populated_places.183","geometry":{"type":"Point","coordinates":[6.550002584636275,53.0000010923506]},"geometry_name":"the_geom","properties":{"NAME":"Assen","bbox":[6.550002584636275,53.0000010923506,6.550002584636275,53.0000010923506]}},{"type":"Feature","id":"ne_10m_populated_places.184","geometry":{"type":"Point","coordinates":[5.922999562462564,51.98799603445673]},"geometry_name":"the_geom","properties":{"NAME":"Arnhem","bbox":[5.922999562462564,51.98799603445673,5.922999562462564,51.98799603445673]}},{"type":"Feature","id":"ne_10m_populated_places.185","geometry":{"type":"Point","coordinates":[5.677002476606958,50.852997067177284]},"geometry_name":"the_geom","properties":{"NAME":"Maastricht","bbox":[5.677002476606958,50.852997067177284,5.677002476606958,50.852997067177284]}},{"type":"Feature","id":"ne_10m_populated_places.186","geometry":{"type":"Point","coordinates":[6.096996528517536,52.52400008888333]},"geometry_name":"the_geom","properties":{"NAME":"Zwolle","bbox":[6.096996528517536,52.52400008888333,6.096996528517536,52.52400008888333]}},{"type":"Feature","id":"ne_10m_populated_places.187","geometry":{"type":"Point","coordinates":[3.6099995406732432,51.50199617733273]},"geometry_name":"the_geom","properties":{"NAME":"Middelburg","bbox":[3.6099995406732432,51.50199617733273,3.6099995406732432,51.50199617733273]}},{"type":"Feature","id":"ne_10m_populated_places.188","geometry":{"type":"Point","coordinates":[5.316660484814179,51.68333714269971]},"geometry_name":"the_geom","properties":{"NAME":"'s-Hertogenbosch","bbox":[5.316660484814179,51.68333714269971,5.316660484814179,51.68333714269971]}},{"type":"Feature","id":"ne_10m_populated_places.189","geometry":{"type":"Point","coordinates":[8.766000553457104,58.464756055522116]},"geometry_name":"the_geom","properties":{"NAME":"Arendal","bbox":[8.766000553457104,58.464756055522116,8.766000553457104,58.464756055522116]}},{"type":"Feature","id":"ne_10m_populated_places.190","geometry":{"type":"Point","coordinates":[6.441003462826245,60.63000316477013]},"geometry_name":"the_geom","properties":{"NAME":"Vossavangen","bbox":[6.441003462826245,60.63000316477013,6.441003462826245,60.63000316477013]}},{"type":"Feature","id":"ne_10m_populated_places.191","geometry":{"type":"Point","coordinates":[6.849999470745956,61.183296124492415]},"geometry_name":"the_geom","properties":{"NAME":"Leikanger","bbox":[6.849999470745956,61.183296124492415,6.849999470745956,61.183296124492415]}},{"type":"Feature","id":"ne_10m_populated_places.192","geometry":{"type":"Point","coordinates":[11.34723651361196,59.91348605972365]},"geometry_name":"the_geom","properties":{"NAME":"Brum","bbox":[11.34723651361196,59.91348605972365,11.34723651361196,59.91348605972365]}},{"type":"Feature","id":"ne_10m_populated_places.193","geometry":{"type":"Point","coordinates":[11.069001556106116,60.820002069703264]},"geometry_name":"the_geom","properties":{"NAME":"Hamar","bbox":[11.069001556106116,60.820002069703264,11.069001556106116,60.820002069703264]}},{"type":"Feature","id":"ne_10m_populated_places.194","geometry":{"type":"Point","coordinates":[10.4210014708014,59.26400108954488]},"geometry_name":"the_geom","properties":{"NAME":"Tnsberg","bbox":[10.4210014708014,59.26400108954488,10.4210014708014,59.26400108954488]}},{"type":"Feature","id":"ne_10m_populated_places.195","geometry":{"type":"Point","coordinates":[83.58329762017695,28.26669605934768]},"geometry_name":"the_geom","properties":{"NAME":"Baglung","bbox":[83.58329762017695,28.26669605934768,83.58329762017695,28.26669605934768]}},{"type":"Feature","id":"ne_10m_populated_places.196","geometry":{"type":"Point","coordinates":[82.21670162409868,29.25000012783977]},"geometry_name":"the_geom","properties":{"NAME":"Jumla","bbox":[82.21670162409868,29.25000012783977,82.21670162409868,29.25000012783977]}},{"type":"Feature","id":"ne_10m_populated_places.197","geometry":{"type":"Point","coordinates":[83.38329953061987,27.533304089120975]},"geometry_name":"the_geom","properties":{"NAME":"Bhairawa","bbox":[83.38329953061987,27.533304089120975,83.38329953061987,27.533304089120975]}},{"type":"Feature","id":"ne_10m_populated_places.198","geometry":{"type":"Point","coordinates":[80.60000454741635,29.300004159658783]},"geometry_name":"the_geom","properties":{"NAME":"Dandeldhura","bbox":[80.60000454741635,29.300004159658783,80.60000454741635,29.300004159658783]}},{"type":"Feature","id":"ne_10m_populated_places.199","geometry":{"type":"Point","coordinates":[80.59300260282794,28.69499705998328]},"geometry_name":"the_geom","properties":{"NAME":"Dhangarhi","bbox":[80.59300260282794,28.69499705998328,80.59300260282794,28.69499705998328]}},{"type":"Feature","id":"ne_10m_populated_places.200","geometry":{"type":"Point","coordinates":[86.08699852858143,27.325998075689824]},"geometry_name":"the_geom","properties":{"NAME":"Ramechhap","bbox":[86.08699852858143,27.325998075689824,86.08699852858143,27.325998075689824]}},{"type":"Feature","id":"ne_10m_populated_places.201","geometry":{"type":"Point","coordinates":[85.13000156287723,27.550998098414254]},"geometry_name":"the_geom","properties":{"NAME":"Bhimphedi","bbox":[85.13000156287723,27.550998098414254,85.13000156287723,27.550998098414254]}},{"type":"Feature","id":"ne_10m_populated_places.202","geometry":{"type":"Point","coordinates":[86.73329760735317,26.533296100068526]},"geometry_name":"the_geom","properties":{"NAME":"Rajbiraj","bbox":[86.73329760735317,26.533296100068526,86.73329760735317,26.533296100068526]}},{"type":"Feature","id":"ne_10m_populated_places.203","geometry":{"type":"Point","coordinates":[87.92600453272223,26.908002073480247]},"geometry_name":"the_geom","properties":{"NAME":"Ilam","bbox":[87.92600453272223,26.908002073480247,87.92600453272223,26.908002073480247]}},{"type":"Feature","id":"ne_10m_populated_places.204","geometry":{"type":"Point","coordinates":[143.71800373801102,-5.4900000049642586]},"geometry_name":"the_geom","properties":{"NAME":"Wabag","bbox":[143.71800373801102,-5.4900000049642586,143.71800373801102,-5.4900000049642586]}},{"type":"Feature","id":"ne_10m_populated_places.205","geometry":{"type":"Point","coordinates":[141.30399662773323,-2.6900009357166823]},"geometry_name":"the_geom","properties":{"NAME":"Vanimo","bbox":[141.30399662773323,-2.6900009357166823,141.30399662773323,-2.6900009357166823]}},{"type":"Feature","id":"ne_10m_populated_places.206","geometry":{"type":"Point","coordinates":[144.9600127135168,-6.022997883237622]},"geometry_name":"the_geom","properties":{"NAME":"Kundiawa","bbox":[144.9600127135168,-6.022997883237622,144.9600127135168,-6.022997883237622]}},{"type":"Feature","id":"ne_10m_populated_places.207","geometry":{"type":"Point","coordinates":[145.83799867871426,-7.927001897107175]},"geometry_name":"the_geom","properties":{"NAME":"Kerema","bbox":[145.83799867871426,-7.927001897107175,145.83799867871426,-7.927001897107175]}},{"type":"Feature","id":"ne_10m_populated_places.208","geometry":{"type":"Point","coordinates":[155.56599066773765,-6.228000033165301]},"geometry_name":"the_geom","properties":{"NAME":"Arawa","bbox":[155.56599066773765,-6.228000033165301,155.56599066773765,-6.228000033165301]}},{"type":"Feature","id":"ne_10m_populated_places.209","geometry":{"type":"Point","coordinates":[147.27999664217543,-2.0320019967551843]},"geometry_name":"the_geom","properties":{"NAME":"Lorengau","bbox":[147.27999664217543,-2.0320019967551843,147.27999664217543,-2.0320019967551843]}},{"type":"Feature","id":"ne_10m_populated_places.210","geometry":{"type":"Point","coordinates":[150.14301370916962,-5.550002890439828]},"geometry_name":"the_geom","properties":{"NAME":"Kimbe","bbox":[150.14301370916962,-5.550002890439828,150.14301370916962,-5.550002890439828]}},{"type":"Feature","id":"ne_10m_populated_places.211","geometry":{"type":"Point","coordinates":[29.160833300000036,47.26305560000014]},"geometry_name":"the_geom","properties":{"NAME":"Dubasari","bbox":[29.160833300000036,47.26305560000014,29.160833300000036,47.26305560000014]}},{"type":"Feature","id":"ne_10m_populated_places.212","geometry":{"type":"Point","coordinates":[28.701999506608843,-30.117266915271443]},"geometry_name":"the_geom","properties":{"NAME":"Qacha's Nek","bbox":[28.701999506608843,-30.117266915271443,28.701999506608843,-30.117266915271443]}},{"type":"Feature","id":"ne_10m_populated_places.213","geometry":{"type":"Point","coordinates":[43.86670260501256,4.183298972756461]},"geometry_name":"the_geom","properties":{"NAME":"Hudur","bbox":[43.86670260501256,4.183298972756461,43.86670260501256,4.183298972756461]}},{"type":"Feature","id":"ne_10m_populated_places.214","geometry":{"type":"Point","coordinates":[42.227001644864,3.3270031162549003]},"geometry_name":"the_geom","properties":{"NAME":"Garbahaarey","bbox":[42.227001644864,3.3270031162549003,42.227001644864,3.3270031162549003]}},{"type":"Feature","id":"ne_10m_populated_places.215","geometry":{"type":"Point","coordinates":[42.58330252569874,1.0833030173990323]},"geometry_name":"the_geom","properties":{"NAME":"Bu'aale","bbox":[42.58330252569874,1.0833030173990323,42.58330252569874,1.0833030173990323]}},{"type":"Feature","id":"ne_10m_populated_places.216","geometry":{"type":"Point","coordinates":[46.508004499917206,5.741999984298388]},"geometry_name":"the_geom","properties":{"NAME":"Dhuusa Mareeb","bbox":[46.508004499917206,5.741999984298388,46.508004499917206,5.741999984298388]}},{"type":"Feature","id":"ne_10m_populated_places.217","geometry":{"type":"Point","coordinates":[81.23300155321004,8.568999036414937]},"geometry_name":"the_geom","properties":{"NAME":"Trincomalee","bbox":[81.23300155321004,8.568999036414937,81.23300155321004,8.568999036414937]}},{"type":"Feature","id":"ne_10m_populated_places.218","geometry":{"type":"Point","coordinates":[79.8260045420567,8.03300408358956]},"geometry_name":"the_geom","properties":{"NAME":"Puttalan","bbox":[79.8260045420567,8.03300408358956,79.8260045420567,8.03300408358956]}},{"type":"Feature","id":"ne_10m_populated_places.219","geometry":{"type":"Point","coordinates":[80.38600256868261,6.693003131866192]},"geometry_name":"the_geom","properties":{"NAME":"Ratnapura","bbox":[80.38600256868261,6.693003131866192,80.38600256868261,6.693003131866192]}},{"type":"Feature","id":"ne_10m_populated_places.220","geometry":{"type":"Point","coordinates":[7.486002487209248,5.532003041084806]},"geometry_name":"the_geom","properties":{"NAME":"Umuahia","bbox":[7.486002487209248,5.532003041084806,7.486002487209248,5.532003041084806]}},{"type":"Feature","id":"ne_10m_populated_places.221","geometry":{"type":"Point","coordinates":[7.849998523680938,5.007996055499859]},"geometry_name":"the_geom","properties":{"NAME":"Uyo","bbox":[7.849998523680938,5.007996055499859,7.849998523680938,5.007996055499859]}},{"type":"Feature","id":"ne_10m_populated_places.222","geometry":{"type":"Point","coordinates":[7.026003588103549,5.492997053256886]},"geometry_name":"the_geom","properties":{"NAME":"Owerri","bbox":[7.026003588103549,5.492997053256886,7.026003588103549,5.492997053256886]}},{"type":"Feature","id":"ne_10m_populated_places.223","geometry":{"type":"Point","coordinates":[125.76200468696481,38.50700410988418]},"geometry_name":"the_geom","properties":{"NAME":"Sariwon","bbox":[125.76200468696481,38.50700410988418,125.76200468696481,38.50700410988418]}},{"type":"Feature","id":"ne_10m_populated_places.224","geometry":{"type":"Point","coordinates":[125.46399658347138,39.4880041493891]},"geometry_name":"the_geom","properties":{"NAME":"Sin-Ni","bbox":[125.46399658347138,39.4880041493891,125.46399658347138,39.4880041493891]}},{"type":"Feature","id":"ne_10m_populated_places.225","geometry":{"type":"Point","coordinates":[106.20000062394132,50.249997118804345]},"geometry_name":"the_geom","properties":{"NAME":"Suchboatar","bbox":[106.20000062394132,50.249997118804345,106.20000062394132,50.249997118804345]}},{"type":"Feature","id":"ne_10m_populated_places.226","geometry":{"type":"Point","coordinates":[106.94700064643206,47.71099804943998]},"geometry_name":"the_geom","properties":{"NAME":"Dzuunmod","bbox":[106.94700064643206,47.71099804943998,106.94700064643206,47.71099804943998]}},{"type":"Feature","id":"ne_10m_populated_places.227","geometry":{"type":"Point","coordinates":[15.95099753919709,-21.43600193100059]},"geometry_name":"the_geom","properties":{"NAME":"Omaruru","bbox":[15.95099753919709,-21.43600193100059,15.95099753919709,-21.43600193100059]}},{"type":"Feature","id":"ne_10m_populated_places.228","geometry":{"type":"Point","coordinates":[15.852996461377984,-21.939002917336893]},"geometry_name":"the_geom","properties":{"NAME":"Karibib","bbox":[15.852996461377984,-21.939002917336893,15.852996461377984,-21.939002917336893]}},{"type":"Feature","id":"ne_10m_populated_places.229","geometry":{"type":"Point","coordinates":[17.342001547590087,-19.639998014090395]},"geometry_name":"the_geom","properties":{"NAME":"Otavi","bbox":[17.342001547590087,-19.639998014090395,17.342001547590087,-19.639998014090395]}},{"type":"Feature","id":"ne_10m_populated_places.230","geometry":{"type":"Point","coordinates":[18.963000537477114,-22.45499999736535]},"geometry_name":"the_geom","properties":{"NAME":"Gobabis","bbox":[18.963000537477114,-22.45499999736535,18.963000537477114,-22.45499999736535]}},{"type":"Feature","id":"ne_10m_populated_places.231","geometry":{"type":"Point","coordinates":[39.725799001631856,-5.063463959181377]},"geometry_name":"the_geom","properties":{"NAME":"Wete","bbox":[39.725799001631856,-5.063463959181377,39.725799001631856,-5.063463959181377]}},{"type":"Feature","id":"ne_10m_populated_places.232","geometry":{"type":"Point","coordinates":[38.91670260152341,-6.766703953491913]},"geometry_name":"the_geom","properties":{"NAME":"Kibaha","bbox":[38.91670260152341,-6.766703953491913,38.91670260152341,-6.766703953491913]}},{"type":"Feature","id":"ne_10m_populated_places.233","geometry":{"type":"Point","coordinates":[39.259998618032114,-5.8789979746035215]},"geometry_name":"the_geom","properties":{"NAME":"Mkokotoni","bbox":[39.259998618032114,-5.8789979746035215,39.259998618032114,-5.8789979746035215]}},{"type":"Feature","id":"ne_10m_populated_places.234","geometry":{"type":"Point","coordinates":[7.149996522339677,46.80000008003458]},"geometry_name":"the_geom","properties":{"NAME":"Fribourg","bbox":[7.149996522339677,46.80000008003458,7.149996522339677,46.80000008003458]}},{"type":"Feature","id":"ne_10m_populated_places.235","geometry":{"type":"Point","coordinates":[7.737003467952093,47.48300111764712]},"geometry_name":"the_geom","properties":{"NAME":"Liestal","bbox":[7.737003467952093,47.48300111764712,7.737003467952093,47.48300111764712]}},{"type":"Feature","id":"ne_10m_populated_places.236","geometry":{"type":"Point","coordinates":[7.536996607761182,47.21200209862383]},"geometry_name":"the_geom","properties":{"NAME":"Solothurn","bbox":[7.536996607761182,47.21200209862383,7.536996607761182,47.21200209862383]}},{"type":"Feature","id":"ne_10m_populated_places.237","geometry":{"type":"Point","coordinates":[8.243001528840296,46.89900001722043]},"geometry_name":"the_geom","properties":{"NAME":"Sarnen","bbox":[8.243001528840296,46.89900001722043,8.243001528840296,46.89900001722043]}},{"type":"Feature","id":"ne_10m_populated_places.238","geometry":{"type":"Point","coordinates":[13.827996587824487,58.705002087769515]},"geometry_name":"the_geom","properties":{"NAME":"Mariestad","bbox":[13.827996587824487,58.705002087769515,13.827996587824487,58.705002087769515]}},{"type":"Feature","id":"ne_10m_populated_places.239","geometry":{"type":"Point","coordinates":[12.330000608924081,58.36300213927973]},"geometry_name":"the_geom","properties":{"NAME":"Vannersborg","bbox":[12.330000608924081,58.36300213927973,12.330000608924081,58.36300213927973]}},{"type":"Feature","id":"ne_10m_populated_places.240","geometry":{"type":"Point","coordinates":[9.41670050466189,47.33330410307747]},"geometry_name":"the_geom","properties":{"NAME":"Appenzell","bbox":[9.41670050466189,47.33330410307747,9.41670050466189,47.33330410307747]}},{"type":"Feature","id":"ne_10m_populated_places.241","geometry":{"type":"Point","coordinates":[-8.183333300000015,53.63333330000012]},"geometry_name":"the_geom","properties":{"NAME":"Ros Comain","bbox":[-8.183333300000015,53.63333330000012,-8.183333300000015,53.63333330000012]}},{"type":"Feature","id":"ne_10m_populated_places.242","geometry":{"type":"Point","coordinates":[-16.164998540115675,12.26899803107699]},"geometry_name":"the_geom","properties":{"NAME":"Cacheu","bbox":[-16.164998540115675,12.26899803107699,-16.164998540115675,12.26899803107699]}},{"type":"Feature","id":"ne_10m_populated_places.243","geometry":{"type":"Point","coordinates":[-15.227000422357548,12.492999028950976]},"geometry_name":"the_geom","properties":{"NAME":"Farim","bbox":[-15.227000422357548,12.492999028950976,-15.227000422357548,12.492999028950976]}},{"type":"Feature","id":"ne_10m_populated_places.244","geometry":{"type":"Point","coordinates":[-15.194996544601622,11.772998989329096]},"geometry_name":"the_geom","properties":{"NAME":"Fulacunda","bbox":[-15.194996544601622,11.772998989329096,-15.194996544601622,11.772998989329096]}},{"type":"Feature","id":"ne_10m_populated_places.245","geometry":{"type":"Point","coordinates":[-14.234003479494788,12.279996075067857]},"geometry_name":"the_geom","properties":{"NAME":"Gabu","bbox":[-14.234003479494788,12.279996075067857,-14.234003479494788,12.279996075067857]}},{"type":"Feature","id":"ne_10m_populated_places.246","geometry":{"type":"Point","coordinates":[-15.166700493713734,11.216700018937445]},"geometry_name":"the_geom","properties":{"NAME":"Catio","bbox":[-15.166700493713734,11.216700018937445,-15.166700493713734,11.216700018937445]}},{"type":"Feature","id":"ne_10m_populated_places.247","geometry":{"type":"Point","coordinates":[-8.1666985180197,4.799996996503978]},"geometry_name":"the_geom","properties":{"NAME":"Barclayville","bbox":[-8.1666985180197,4.799996996503978,-8.1666985180197,4.799996996503978]}},{"type":"Feature","id":"ne_10m_populated_places.248","geometry":{"type":"Point","coordinates":[-9.749996524215192,8.416701115173566]},"geometry_name":"the_geom","properties":{"NAME":"Voinjama","bbox":[-9.749996524215192,8.416701115173566,-9.749996524215192,8.416701115173566]}},{"type":"Feature","id":"ne_10m_populated_places.249","geometry":{"type":"Point","coordinates":[-10.600001519412046,6.433299034518313]},"geometry_name":"the_geom","properties":{"NAME":"Bensonville","bbox":[-10.600001519412046,6.433299034518313,-10.600001519412046,6.433299034518313]}},{"type":"Feature","id":"ne_10m_populated_places.250","geometry":{"type":"Point","coordinates":[-10.349000538669088,6.525999008798351]},"geometry_name":"the_geom","properties":{"NAME":"Kakata","bbox":[-10.349000538669088,6.525999008798351,-10.349000538669088,6.525999008798351]}},{"type":"Feature","id":"ne_10m_populated_places.251","geometry":{"type":"Point","coordinates":[-8.684999461551683,7.371000109108024]},"geometry_name":"the_geom","properties":{"NAME":"Sanniquellie","bbox":[-8.684999461551683,7.371000109108024,-8.684999461551683,7.371000109108024]}},{"type":"Feature","id":"ne_10m_populated_places.252","geometry":{"type":"Point","coordinates":[-9.577997442377807,5.464998045537243]},"geometry_name":"the_geom","properties":{"NAME":"Rivercess","bbox":[-9.577997442377807,5.464998045537243,-9.577997442377807,5.464998045537243]}},{"type":"Feature","id":"ne_10m_populated_places.253","geometry":{"type":"Point","coordinates":[15.798996495640267,40.642002130098206]},"geometry_name":"the_geom","properties":{"NAME":"Potenza","bbox":[15.798996495640267,40.642002130098206,15.798996495640267,40.642002130098206]}},{"type":"Feature","id":"ne_10m_populated_places.254","geometry":{"type":"Point","coordinates":[14.655996558921856,41.56299911864397]},"geometry_name":"the_geom","properties":{"NAME":"Campobasso","bbox":[14.655996558921856,41.56299911864397,14.655996558921856,41.56299911864397]}},{"type":"Feature","id":"ne_10m_populated_places.255","geometry":{"type":"Point","coordinates":[36.23329851952707,32.283297066935575]},"geometry_name":"the_geom","properties":{"NAME":"Al Mafraq","bbox":[36.23329851952707,32.283297066935575,36.23329851952707,32.283297066935575]}},{"type":"Feature","id":"ne_10m_populated_places.256","geometry":{"type":"Point","coordinates":[35.600004636048595,30.83333404398934]},"geometry_name":"the_geom","properties":{"NAME":"At Tafilah","bbox":[35.600004636048595,30.83333404398934,35.600004636048595,30.83333404398934]}},{"type":"Feature","id":"ne_10m_populated_places.257","geometry":{"type":"Point","coordinates":[35.73600357524384,30.19200311563435]},"geometry_name":"the_geom","properties":{"NAME":"Ma'an","bbox":[35.73600357524384,30.19200311563435,35.73600357524384,30.19200311563435]}},{"type":"Feature","id":"ne_10m_populated_places.258","geometry":{"type":"Point","coordinates":[7.315002595706176,45.7370010670723]},"geometry_name":"the_geom","properties":{"NAME":"Aosta","bbox":[7.315002595706176,45.7370010670723,7.315002595706176,45.7370010670723]}},{"type":"Feature","id":"ne_10m_populated_places.259","geometry":{"type":"Point","coordinates":[6.166701555448867,49.88330105094923]},"geometry_name":"the_geom","properties":{"NAME":"Diekirch","bbox":[6.166701555448867,49.88330105094923,6.166701555448867,49.88330105094923]}},{"type":"Feature","id":"ne_10m_populated_places.260","geometry":{"type":"Point","coordinates":[6.33330057451883,49.69999811131868]},"geometry_name":"the_geom","properties":{"NAME":"Grevenmacher","bbox":[6.33330057451883,49.69999811131868,6.33330057451883,49.69999811131868]}},{"type":"Feature","id":"ne_10m_populated_places.261","geometry":{"type":"Point","coordinates":[100.18999868204185,6.433001991350125]},"geometry_name":"the_geom","properties":{"NAME":"Kangar","bbox":[100.18999868204185,6.433001991350125,100.18999868204185,6.433001991350125]}},{"type":"Feature","id":"ne_10m_populated_places.262","geometry":{"type":"Point","coordinates":[102.0420006143911,4.184001119922641]},"geometry_name":"the_geom","properties":{"NAME":"Kuala Lipis","bbox":[102.0420006143911,4.184001119922641,102.0420006143911,4.184001119922641]}},{"type":"Feature","id":"ne_10m_populated_places.263","geometry":{"type":"Point","coordinates":[101.54999767204566,3.066695996452836]},"geometry_name":"the_geom","properties":{"NAME":"Shah Alam","bbox":[101.54999767204566,3.066695996452836,101.54999767204566,3.066695996452836]}},{"type":"Feature","id":"ne_10m_populated_places.264","geometry":{"type":"Point","coordinates":[36.95100363176289,-0.4169969904884283]},"geometry_name":"the_geom","properties":{"NAME":"Nyeri","bbox":[36.95100363176289,-0.4169969904884283,36.95100363176289,-0.4169969904884283]}},{"type":"Feature","id":"ne_10m_populated_places.265","geometry":{"type":"Point","coordinates":[27.75300351034366,-29.152997935647022]},"geometry_name":"the_geom","properties":{"NAME":"Teyateyaneng","bbox":[27.75300351034366,-29.152997935647022,27.75300351034366,-29.152997935647022]}},{"type":"Feature","id":"ne_10m_populated_places.266","geometry":{"type":"Point","coordinates":[27.47999750550133,-30.158999908319572]},"geometry_name":"the_geom","properties":{"NAME":"Mohales Hoek","bbox":[27.47999750550133,-30.158999908319572,27.47999750550133,-30.158999908319572]}},{"type":"Feature","id":"ne_10m_populated_places.267","geometry":{"type":"Point","coordinates":[27.716004508334265,-30.410999913912974]},"geometry_name":"the_geom","properties":{"NAME":"Moyeni","bbox":[27.716004508334265,-30.410999913912974,27.716004508334265,-30.410999913912974]}},{"type":"Feature","id":"ne_10m_populated_places.268","geometry":{"type":"Point","coordinates":[28.055997636489053,-28.878002982704743]},"geometry_name":"the_geom","properties":{"NAME":"Hlotse","bbox":[28.055997636489053,-28.878002982704743,28.055997636489053,-28.878002982704743]}},{"type":"Feature","id":"ne_10m_populated_places.269","geometry":{"type":"Point","coordinates":[28.25000157694211,-28.749995911347355]},"geometry_name":"the_geom","properties":{"NAME":"Butha-Buthe","bbox":[28.25000157694211,-28.749995911347355,28.25000157694211,-28.749995911347355]}},{"type":"Feature","id":"ne_10m_populated_places.270","geometry":{"type":"Point","coordinates":[29.07800154803965,-29.29100402614472]},"geometry_name":"the_geom","properties":{"NAME":"Mokhotlong","bbox":[29.07800154803965,-29.29100402614472,29.07800154803965,-29.29100402614472]}},{"type":"Feature","id":"ne_10m_populated_places.271","geometry":{"type":"Point","coordinates":[-89.84500154668643,13.919003989651856]},"geometry_name":"the_geom","properties":{"NAME":"Ahuachapan","bbox":[-89.84500154668643,13.919003989651856,-89.84500154668643,13.919003989651856]}},{"type":"Feature","id":"ne_10m_populated_places.272","geometry":{"type":"Point","coordinates":[-88.9333015955986,13.716702036591414]},"geometry_name":"the_geom","properties":{"NAME":"Cojutepeque","bbox":[-88.9333015955986,13.716702036591414,-88.9333015955986,13.716702036591414]}},{"type":"Feature","id":"ne_10m_populated_places.273","geometry":{"type":"Point","coordinates":[-89.28999847882994,13.673996992529169]},"geometry_name":"the_geom","properties":{"NAME":"Nueva San Salvador","bbox":[-89.28999847882994,13.673996992529169,-89.28999847882994,13.673996992529169]}},{"type":"Feature","id":"ne_10m_populated_places.274","geometry":{"type":"Point","coordinates":[-88.86799760658403,13.508000995913164]},"geometry_name":"the_geom","properties":{"NAME":"Zacatecoluca","bbox":[-88.86799760658403,13.508000995913164,-88.86799760658403,13.508000995913164]}},{"type":"Feature","id":"ne_10m_populated_places.275","geometry":{"type":"Point","coordinates":[-87.83900052107902,13.331997044039213]},"geometry_name":"the_geom","properties":{"NAME":"La Union","bbox":[-87.83900052107902,13.331997044039213,-87.83900052107902,13.331997044039213]}},{"type":"Feature","id":"ne_10m_populated_places.276","geometry":{"type":"Point","coordinates":[-88.10000052096211,13.699998116031054]},"geometry_name":"the_geom","properties":{"NAME":"San Francisco Gotera","bbox":[-88.10000052096211,13.699998116031054,-88.10000052096211,13.699998116031054]}},{"type":"Feature","id":"ne_10m_populated_places.277","geometry":{"type":"Point","coordinates":[-88.78499960827611,13.641003026040096]},"geometry_name":"the_geom","properties":{"NAME":"San Vicente","bbox":[-88.78499960827611,13.641003026040096,-88.78499960827611,13.641003026040096]}},{"type":"Feature","id":"ne_10m_populated_places.278","geometry":{"type":"Point","coordinates":[-88.43200161579529,13.346001098699674]},"geometry_name":"the_geom","properties":{"NAME":"Usulutan","bbox":[-88.43200161579529,13.346001098699674,-88.43200161579529,13.346001098699674]}},{"type":"Feature","id":"ne_10m_populated_places.279","geometry":{"type":"Point","coordinates":[-89.09399648867554,14.072004058059235]},"geometry_name":"the_geom","properties":{"NAME":"Chalatenango","bbox":[-89.09399648867554,14.072004058059235,-89.09399648867554,14.072004058059235]}},{"type":"Feature","id":"ne_10m_populated_places.280","geometry":{"type":"Point","coordinates":[-78.17900361633639,18.44299808537494]},"geometry_name":"the_geom","properties":{"NAME":"Lucea","bbox":[-78.17900361633639,18.44299808537494,-78.17900361633639,18.44299808537494]}},{"type":"Feature","id":"ne_10m_populated_places.281","geometry":{"type":"Point","coordinates":[-77.4999985126426,18.033003052604442]},"geometry_name":"the_geom","properties":{"NAME":"Mandeville","bbox":[-77.4999985126426,18.033003052604442,-77.4999985126426,18.033003052604442]}},{"type":"Feature","id":"ne_10m_populated_places.282","geometry":{"type":"Point","coordinates":[-77.85199748027264,18.03099606678569]},"geometry_name":"the_geom","properties":{"NAME":"Black River","bbox":[-77.85199748027264,18.03099606678569,-77.85199748027264,18.03099606678569]}},{"type":"Feature","id":"ne_10m_populated_places.283","geometry":{"type":"Point","coordinates":[-77.65604960327488,18.479583047268818]},"geometry_name":"the_geom","properties":{"NAME":"Falmouth","bbox":[-77.65604960327488,18.479583047268818,-77.65604960327488,18.479583047268818]}},{"type":"Feature","id":"ne_10m_populated_places.284","geometry":{"type":"Point","coordinates":[-77.94800050839041,18.16399809691262]},"geometry_name":"the_geom","properties":{"NAME":"Savanna-la-Mar","bbox":[-77.94800050839041,18.16399809691262,-77.94800050839041,18.16399809691262]}},{"type":"Feature","id":"ne_10m_populated_places.285","geometry":{"type":"Point","coordinates":[-76.38000262487424,18.15900313814302]},"geometry_name":"the_geom","properties":{"NAME":"Port Antonio","bbox":[-76.38000262487424,18.15900313814302,-76.38000262487424,18.15900313814302]}},{"type":"Feature","id":"ne_10m_populated_places.286","geometry":{"type":"Point","coordinates":[-77.19952453714319,18.432639139275977]},"geometry_name":"the_geom","properties":{"NAME":"St. Ann's Bay","bbox":[-77.19952453714319,18.432639139275977,-77.19952453714319,18.432639139275977]}},{"type":"Feature","id":"ne_10m_populated_places.287","geometry":{"type":"Point","coordinates":[-76.89999547333792,18.37700105079557]},"geometry_name":"the_geom","properties":{"NAME":"Port Maria","bbox":[-76.89999547333792,18.37700105079557,-76.89999547333792,18.37700105079557]}},{"type":"Feature","id":"ne_10m_populated_places.288","geometry":{"type":"Point","coordinates":[-76.79999651130129,18.03330009577286]},"geometry_name":"the_geom","properties":{"NAME":"Half Way Tree","bbox":[-76.79999651130129,18.03330009577286,-76.79999651130129,18.03330009577286]}},{"type":"Feature","id":"ne_10m_populated_places.289","geometry":{"type":"Point","coordinates":[-76.32899956820472,17.891001028187986]},"geometry_name":"the_geom","properties":{"NAME":"Port Morant","bbox":[-76.32899956820472,17.891001028187986,-76.32899956820472,17.891001028187986]}},{"type":"Feature","id":"ne_10m_populated_places.290","geometry":{"type":"Point","coordinates":[-71.34498853565697,19.504998073486604]},"geometry_name":"the_geom","properties":{"NAME":"Sabaneta","bbox":[-71.34498853565697,19.504998073486604,-71.34498853565697,19.504998073486604]}},{"type":"Feature","id":"ne_10m_populated_places.291","geometry":{"type":"Point","coordinates":[-71.07499747760187,19.55199609463608]},"geometry_name":"the_geom","properties":{"NAME":"Mao","bbox":[-71.07499747760187,19.55199609463608,-71.07499747760187,19.55199609463608]}},{"type":"Feature","id":"ne_10m_populated_places.292","geometry":{"type":"Point","coordinates":[-70.15200260483857,19.059003063557554]},"geometry_name":"the_geom","properties":{"NAME":"Cotui","bbox":[-70.15200260483857,19.059003063557554,-70.15200260483857,19.059003063557554]}},{"type":"Feature","id":"ne_10m_populated_places.293","geometry":{"type":"Point","coordinates":[10.566702551452181,1.4499990852543192]},"geometry_name":"the_geom","properties":{"NAME":"Evinayong","bbox":[10.566702551452181,1.4499990852543192,10.566702551452181,1.4499990852543192]}},{"type":"Feature","id":"ne_10m_populated_places.294","geometry":{"type":"Point","coordinates":[8.550000525022256,3.4499970256403003]},"geometry_name":"the_geom","properties":{"NAME":"Luba","bbox":[8.550000525022256,3.4499970256403003,8.550000525022256,3.4499970256403003]}},{"type":"Feature","id":"ne_10m_populated_places.295","geometry":{"type":"Point","coordinates":[15.905833299999983,43.72722219999997]},"geometry_name":"the_geom","properties":{"NAME":"Sibenik","bbox":[15.905833299999983,43.72722219999997,15.905833299999983,43.72722219999997]}},{"type":"Feature","id":"ne_10m_populated_places.296","geometry":{"type":"Point","coordinates":[30.89999748685051,30.59199912926448]},"geometry_name":"the_geom","properties":{"NAME":"Shibin el Kom","bbox":[30.89999748685051,30.59199912926448,30.89999748685051,30.59199912926448]}},{"type":"Feature","id":"ne_10m_populated_places.297","geometry":{"type":"Point","coordinates":[31.183335629439057,30.46666511545419]},"geometry_name":"the_geom","properties":{"NAME":"Benha","bbox":[31.183335629439057,30.46666511545419,31.183335629439057,30.46666511545419]}},{"type":"Feature","id":"ne_10m_populated_places.298","geometry":{"type":"Point","coordinates":[31.516659600643948,30.583332088097222]},"geometry_name":"the_geom","properties":{"NAME":"Zagazig","bbox":[31.516659600643948,30.583332088097222,31.516659600643948,30.583332088097222]}},{"type":"Feature","id":"ne_10m_populated_places.299","geometry":{"type":"Point","coordinates":[30.93599762949259,31.109004004777432]},"geometry_name":"the_geom","properties":{"NAME":"Kafr el Sheikh","bbox":[30.93599762949259,31.109004004777432,30.93599762949259,31.109004004777432]}},{"type":"Feature","id":"ne_10m_populated_places.300","geometry":{"type":"Point","coordinates":[42.372000578348775,11.104002006376959]},"geometry_name":"the_geom","properties":{"NAME":"Dikhil","bbox":[42.372000578348775,11.104002006376959,42.372000578348775,11.104002006376959]}},{"type":"Feature","id":"ne_10m_populated_places.301","geometry":{"type":"Point","coordinates":[42.90000349785265,11.783303987755232]},"geometry_name":"the_geom","properties":{"NAME":"Tadjoura","bbox":[42.90000349785265,11.783303987755232,42.90000349785265,11.783303987755232]}},{"type":"Feature","id":"ne_10m_populated_places.302","geometry":{"type":"Point","coordinates":[23.54138890000013,58.94305560000009]},"geometry_name":"the_geom","properties":{"NAME":"Haapsalu","bbox":[23.54138890000013,58.94305560000009,23.54138890000013,58.94305560000009]}},{"type":"Feature","id":"ne_10m_populated_places.303","geometry":{"type":"Point","coordinates":[47.999997559079816,29.333340015387762]},"geometry_name":"the_geom","properties":{"NAME":"Hawalli","bbox":[47.999997559079816,29.333340015387762,47.999997559079816,29.333340015387762]}},{"type":"Feature","id":"ne_10m_populated_places.304","geometry":{"type":"Point","coordinates":[28.52800254055387,-0.7569988892769288]},"geometry_name":"the_geom","properties":{"NAME":"Buluko","bbox":[28.52800254055387,-0.7569988892769288,28.52800254055387,-0.7569988892769288]}},{"type":"Feature","id":"ne_10m_populated_places.305","geometry":{"type":"Point","coordinates":[33.600000000000136,-11.899999999999977]},"geometry_name":"the_geom","properties":{"NAME":"Mzimba","bbox":[33.600000000000136,-11.899999999999977,33.600000000000136,-11.899999999999977]}},{"type":"Feature","id":"ne_10m_populated_places.306","geometry":{"type":"Point","coordinates":[35.51666669999997,-14.966666699999962]},"geometry_name":"the_geom","properties":{"NAME":"Machinga","bbox":[35.51666669999997,-14.966666699999962,35.51666669999997,-14.966666699999962]}},{"type":"Feature","id":"ne_10m_populated_places.307","geometry":{"type":"Point","coordinates":[34.333333299999936,-14.36666669999994]},"geometry_name":"the_geom","properties":{"NAME":"Dedza","bbox":[34.333333299999936,-14.36666669999994,34.333333299999936,-14.36666669999994]}},{"type":"Feature","id":"ne_10m_populated_places.308","geometry":{"type":"Point","coordinates":[32.89999999999998,-13.799999999999955]},"geometry_name":"the_geom","properties":{"NAME":"Mchinji","bbox":[32.89999999999998,-13.799999999999955,32.89999999999998,-13.799999999999955]}},{"type":"Feature","id":"ne_10m_populated_places.309","geometry":{"type":"Point","coordinates":[34.63333329999995,-14.816666699999985]},"geometry_name":"the_geom","properties":{"NAME":"Ntcheu","bbox":[34.63333329999995,-14.816666699999985,34.63333329999995,-14.816666699999985]}},{"type":"Feature","id":"ne_10m_populated_places.310","geometry":{"type":"Point","coordinates":[35.18333330000013,-15.699999999999989]},"geometry_name":"the_geom","properties":{"NAME":"Chiradzulu","bbox":[35.18333330000013,-15.699999999999989,35.18333330000013,-15.699999999999989]}},{"type":"Feature","id":"ne_10m_populated_places.311","geometry":{"type":"Point","coordinates":[35.26666670000003,-16.91666669999995]},"geometry_name":"the_geom","properties":{"NAME":"Nsanje","bbox":[35.26666670000003,-16.91666669999995,35.26666670000003,-16.91666669999995]}},{"type":"Feature","id":"ne_10m_populated_places.312","geometry":{"type":"Point","coordinates":[34.51666670000003,-15.616666699999996]},"geometry_name":"the_geom","properties":{"NAME":"Mwanza","bbox":[34.51666670000003,-15.616666699999996,34.51666670000003,-15.616666699999996]}},{"type":"Feature","id":"ne_10m_populated_places.313","geometry":{"type":"Point","coordinates":[35.49999999999994,-16.033333299999924]},"geometry_name":"the_geom","properties":{"NAME":"Mulanje","bbox":[35.49999999999994,-16.033333299999924,35.49999999999994,-16.033333299999924]}},{"type":"Feature","id":"ne_10m_populated_places.314","geometry":{"type":"Point","coordinates":[-90.31400060556541,15.102999027781948]},"geometry_name":"the_geom","properties":{"NAME":"Salama","bbox":[-90.31400060556541,15.102999027781948,-90.31400060556541,15.102999027781948]}},{"type":"Feature","id":"ne_10m_populated_places.315","geometry":{"type":"Point","coordinates":[-91.6770145423564,14.537097040646358]},"geometry_name":"the_geom","properties":{"NAME":"Retalhuleu","bbox":[-91.6770145423564,14.537097040646358,-91.6770145423564,14.537097040646358]}},{"type":"Feature","id":"ne_10m_populated_places.316","geometry":{"type":"Point","coordinates":[-91.79999951562428,14.966001063736144]},"geometry_name":"the_geom","properties":{"NAME":"San Marcos","bbox":[-91.79999951562428,14.966001063736144,-91.79999951562428,14.966001063736144]}},{"type":"Feature","id":"ne_10m_populated_places.317","geometry":{"type":"Point","coordinates":[-90.81999850096992,14.66199914210614]},"geometry_name":"the_geom","properties":{"NAME":"Chimaltenango","bbox":[-90.81999850096992,14.66199914210614,-90.81999850096992,14.66199914210614]}},{"type":"Feature","id":"ne_10m_populated_places.318","geometry":{"type":"Point","coordinates":[-90.73330161191143,14.566698095670745]},"geometry_name":"the_geom","properties":{"NAME":"Antigua Guatemala","bbox":[-90.73330161191143,14.566698095670745,-90.73330161191143,14.566698095670745]}},{"type":"Feature","id":"ne_10m_populated_places.319","geometry":{"type":"Point","coordinates":[-91.18299551259099,14.772995982650002]},"geometry_name":"the_geom","properties":{"NAME":"Solola","bbox":[-91.18299551259099,14.772995982650002,-91.18299551259099,14.772995982650002]}},{"type":"Feature","id":"ne_10m_populated_places.320","geometry":{"type":"Point","coordinates":[-91.35800060509786,14.913998982215958]},"geometry_name":"the_geom","properties":{"NAME":"Totonicapan","bbox":[-91.35800060509786,14.913998982215958,-91.35800060509786,14.913998982215958]}},{"type":"Feature","id":"ne_10m_populated_places.321","geometry":{"type":"Point","coordinates":[-90.01670358535551,14.849999997337704]},"geometry_name":"the_geom","properties":{"NAME":"El Progreso","bbox":[-90.01670358535551,14.849999997337704,-90.01670358535551,14.849999997337704]}},{"type":"Feature","id":"ne_10m_populated_places.322","geometry":{"type":"Point","coordinates":[-90.29799850120372,14.279004092204502]},"geometry_name":"the_geom","properties":{"NAME":"Cuilapa","bbox":[-90.29799850120372,14.279004092204502,-90.29799850120372,14.279004092204502]}},{"type":"Feature","id":"ne_10m_populated_places.323","geometry":{"type":"Point","coordinates":[-89.54399653412463,14.796999056450602]},"geometry_name":"the_geom","properties":{"NAME":"Chiquimula","bbox":[-89.54399653412463,14.796999056450602,-89.54399653412463,14.796999056450602]}},{"type":"Feature","id":"ne_10m_populated_places.324","geometry":{"type":"Point","coordinates":[-89.98900162080429,14.63300110953594]},"geometry_name":"the_geom","properties":{"NAME":"Jalapa","bbox":[-89.98900162080429,14.63300110953594,-89.98900162080429,14.63300110953594]}},{"type":"Feature","id":"ne_10m_populated_places.325","geometry":{"type":"Point","coordinates":[-89.52900255621495,14.972003983473769]},"geometry_name":"the_geom","properties":{"NAME":"Zacapa","bbox":[-89.52900255621495,14.972003983473769,-89.52900255621495,14.972003983473769]}},{"type":"Feature","id":"ne_10m_populated_places.326","geometry":{"type":"Point","coordinates":[-70.69024747349448,19.790217103345583]},"geometry_name":"the_geom","properties":{"NAME":"Puerto Plata","bbox":[-70.69024747349448,19.790217103345583,-70.69024747349448,19.790217103345583]}},{"type":"Feature","id":"ne_10m_populated_places.327","geometry":{"type":"Point","coordinates":[-71.70499757432736,19.547999995233397]},"geometry_name":"the_geom","properties":{"NAME":"Dajabon","bbox":[-71.70499757432736,19.547999995233397,-71.70499757432736,19.547999995233397]}},{"type":"Feature","id":"ne_10m_populated_places.328","geometry":{"type":"Point","coordinates":[-70.52300058589856,19.396998142011]},"geometry_name":"the_geom","properties":{"NAME":"Moca","bbox":[-70.52300058589856,19.396998142011,-70.52300058589856,19.396998142011]}},{"type":"Feature","id":"ne_10m_populated_places.329","geometry":{"type":"Point","coordinates":[-70.41670149547224,19.383003023468177]},"geometry_name":"the_geom","properties":{"NAME":"Salcedo","bbox":[-70.41670149547224,19.383003023468177,-70.41670149547224,19.383003023468177]}},{"type":"Feature","id":"ne_10m_populated_places.330","geometry":{"type":"Point","coordinates":[-71.85099553266275,18.493002117193953]},"geometry_name":"the_geom","properties":{"NAME":"Jimani","bbox":[-71.85099553266275,18.493002117193953,-71.85099553266275,18.493002117193953]}},{"type":"Feature","id":"ne_10m_populated_places.331","geometry":{"type":"Point","coordinates":[-71.7069954585449,18.875997001611722]},"geometry_name":"the_geom","properties":{"NAME":"Comendador","bbox":[-71.7069954585449,18.875997001611722,-71.7069954585449,18.875997001611722]}},{"type":"Feature","id":"ne_10m_populated_places.332","geometry":{"type":"Point","coordinates":[-71.7409975514858,18.0379980113741]},"geometry_name":"the_geom","properties":{"NAME":"Pedernales","bbox":[-71.7409975514858,18.0379980113741,-71.7409975514858,18.0379980113741]}},{"type":"Feature","id":"ne_10m_populated_places.333","geometry":{"type":"Point","coordinates":[-70.72900159519315,18.453996129365805]},"geometry_name":"the_geom","properties":{"NAME":"Azua","bbox":[-70.72900159519315,18.453996129365805,-70.72900159519315,18.453996129365805]}},{"type":"Feature","id":"ne_10m_populated_places.334","geometry":{"type":"Point","coordinates":[-70.40899756920146,18.94200313779237]},"geometry_name":"the_geom","properties":{"NAME":"Bonao","bbox":[-70.40899756920146,18.94200313779237,-70.40899756920146,18.94200313779237]}},{"type":"Feature","id":"ne_10m_populated_places.335","geometry":{"type":"Point","coordinates":[-70.33100346578061,18.279998997827192]},"geometry_name":"the_geom","properties":{"NAME":"Bani","bbox":[-70.33100346578061,18.279998997827192,-70.33100346578061,18.279998997827192]}},{"type":"Feature","id":"ne_10m_populated_places.336","geometry":{"type":"Point","coordinates":[-69.25699747270988,18.764001136217246]},"geometry_name":"the_geom","properties":{"NAME":"Hato Mayor","bbox":[-69.25699747270988,18.764001136217246,-69.25699747270988,18.764001136217246]}},{"type":"Feature","id":"ne_10m_populated_places.337","geometry":{"type":"Point","coordinates":[-69.78400153284673,18.807003057964096]},"geometry_name":"the_geom","properties":{"NAME":"Monte Plata","bbox":[-69.78400153284673,18.807003057964096,-69.78400153284673,18.807003057964096]}},{"type":"Feature","id":"ne_10m_populated_places.338","geometry":{"type":"Point","coordinates":[-69.8470014928742,19.376001078879767]},"geometry_name":"the_geom","properties":{"NAME":"Nagua","bbox":[-69.8470014928742,19.376001078879767,-69.8470014928742,19.376001078879767]}},{"type":"Feature","id":"ne_10m_populated_places.339","geometry":{"type":"Point","coordinates":[-69.33200360318011,19.212003131965105]},"geometry_name":"the_geom","properties":{"NAME":"Samana","bbox":[-69.33200360318011,19.212003131965105,-69.33200360318011,19.212003131965105]}},{"type":"Feature","id":"ne_10m_populated_places.340","geometry":{"type":"Point","coordinates":[-70.10900051760797,18.41599810250608]},"geometry_name":"the_geom","properties":{"NAME":"San Cristobal","bbox":[-70.10900051760797,18.41599810250608,-70.10900051760797,18.41599810250608]}},{"type":"Feature","id":"ne_10m_populated_places.341","geometry":{"type":"Point","coordinates":[-69.03500346065482,18.764001136217246]},"geometry_name":"the_geom","properties":{"NAME":"El Seibo","bbox":[-69.03500346065482,18.764001136217246,-69.03500346065482,18.764001136217246]}},{"type":"Feature","id":"ne_10m_populated_places.342","geometry":{"type":"Point","coordinates":[-68.70799749007472,18.615996026579296]},"geometry_name":"the_geom","properties":{"NAME":"Higuey","bbox":[-68.70799749007472,18.615996026579296,-68.70799749007472,18.615996026579296]}},{"type":"Feature","id":"ne_10m_populated_places.343","geometry":{"type":"Point","coordinates":[-14.767001523251906,13.551003083143826]},"geometry_name":"the_geom","properties":{"NAME":"Georgetown","bbox":[-14.767001523251906,13.551003083143826,-14.767001523251906,13.551003083143826]}},{"type":"Feature","id":"ne_10m_populated_places.344","geometry":{"type":"Point","coordinates":[-14.222996499386284,13.310001121541063]},"geometry_name":"the_geom","properties":{"NAME":"Basse Santa Su","bbox":[-14.222996499386284,13.310001121541063,-14.222996499386284,13.310001121541063]}},{"type":"Feature","id":"ne_10m_populated_places.345","geometry":{"type":"Point","coordinates":[-16.0949964700161,13.493997106736344]},"geometry_name":"the_geom","properties":{"NAME":"Kerewan","bbox":[-16.0949964700161,13.493997106736344,-16.0949964700161,13.493997106736344]}},{"type":"Feature","id":"ne_10m_populated_places.346","geometry":{"type":"Point","coordinates":[-15.678566439673773,13.377312096374624]},"geometry_name":"the_geom","properties":{"NAME":"Mansa Konko","bbox":[-15.678566439673773,13.377312096374624,-15.678566439673773,13.377312096374624]}},{"type":"Feature","id":"ne_10m_populated_places.347","geometry":{"type":"Point","coordinates":[-2.336003416348092,7.335998991316558]},"geometry_name":"the_geom","properties":{"NAME":"Sunyani","bbox":[-2.336003416348092,7.335998991316558,-2.336003416348092,7.335998991316558]}},{"type":"Feature","id":"ne_10m_populated_places.348","geometry":{"type":"Point","coordinates":[11.33000155598927,2.1529979956638954]},"geometry_name":"the_geom","properties":{"NAME":"Ebebiyin","bbox":[11.33000155598927,2.1529979956638954,11.33000155598927,2.1529979956638954]}},{"type":"Feature","id":"ne_10m_populated_places.349","geometry":{"type":"Point","coordinates":[25.589999999999975,58.36388890000006]},"geometry_name":"the_geom","properties":{"NAME":"Viljandi","bbox":[25.589999999999975,58.36388890000006,25.589999999999975,58.36388890000006]}},{"type":"Feature","id":"ne_10m_populated_places.350","geometry":{"type":"Point","coordinates":[11.02699849372624,-2.856995957183244]},"geometry_name":"the_geom","properties":{"NAME":"Tchibanga","bbox":[11.02699849372624,-2.856995957183244,11.02699849372624,-2.856995957183244]}},{"type":"Feature","id":"ne_10m_populated_places.351","geometry":{"type":"Point","coordinates":[13.554000494249067,-4.164002942417596]},"geometry_name":"the_geom","properties":{"NAME":"Madingou","bbox":[13.554000494249067,-4.164002942417596,13.554000494249067,-4.164002942417596]}},{"type":"Feature","id":"ne_10m_populated_places.352","geometry":{"type":"Point","coordinates":[22.434003575495694,38.89899915407534]},"geometry_name":"the_geom","properties":{"NAME":"Lamia","bbox":[22.434003575495694,38.89899915407534,22.434003575495694,38.89899915407534]}},{"type":"Feature","id":"ne_10m_populated_places.353","geometry":{"type":"Point","coordinates":[23.453001476376755,40.38100213021522]},"geometry_name":"the_geom","properties":{"NAME":"Polygyros","bbox":[23.453001476376755,40.38100213021522,23.453001476376755,40.38100213021522]}},{"type":"Feature","id":"ne_10m_populated_places.354","geometry":{"type":"Point","coordinates":[25.41670256191958,41.133303090761274]},"geometry_name":"the_geom","properties":{"NAME":"Komatini","bbox":[25.41670256191958,41.133303090761274,25.41670256191958,41.133303090761274]}},{"type":"Feature","id":"ne_10m_populated_places.355","geometry":{"type":"Point","coordinates":[35.53329651818581,33.83330406347363]},"geometry_name":"the_geom","properties":{"NAME":"B'abda","bbox":[35.53329651818581,33.83330406347363,35.53329651818581,33.83330406347363]}},{"type":"Feature","id":"ne_10m_populated_places.356","geometry":{"type":"Point","coordinates":[34.86670252344885,31.91670012379211]},"geometry_name":"the_geom","properties":{"NAME":"Ramla","bbox":[34.86670252344885,31.91670012379211,34.86670252344885,31.91670012379211]}},{"type":"Feature","id":"ne_10m_populated_places.357","geometry":{"type":"Point","coordinates":[35.450001642193115,33.3833040180246]},"geometry_name":"the_geom","properties":{"NAME":"Nabatiye et Tahta","bbox":[35.450001642193115,33.3833040180246,35.450001642193115,33.3833040180246]}},{"type":"Feature","id":"ne_10m_populated_places.358","geometry":{"type":"Point","coordinates":[19.949004471869102,60.09699618489543]},"geometry_name":"the_geom","properties":{"NAME":"Mariehamn","bbox":[19.949004471869102,60.09699618489543,19.949004471869102,60.09699618489543]}},{"type":"Feature","id":"ne_10m_populated_places.359","geometry":{"type":"Point","coordinates":[24.471999542741628,60.996996110309965]},